station,start_time,zr_hours,label,duration,lon,lat
GTB,1997-11-28 12:04,0.85,0,0.0,-75.7195,44.0556
UCA,1997-11-28 13:55,1.72,0,3.28,-75.3839,43.1451
RME,1997-11-28 13:55,1.72,0,3.28,-75.3953,43.2239
CYOW,1997-11-28 15:46,3.47,0,4.23,-75.6692,45.3225
MSS,1997-11-28 15:50,1.0,0,0.0,-74.8456,44.9358
ORH,1997-11-28 20:54,1.0,0,0.0,-71.8757,42.2673
AFN,1997-11-28 21:05,0.43,0,0.0,-72.003,42.8051
