station,start_time,zr_hours,label,duration,lon,lat
FSD,1998-02-10 07:13,2.72,0,1.93,-96.7536,43.5769
DVN,1998-02-10 08:54,0.53,0,0.22,-90.5948,41.6133
SUX,1998-02-10 09:55,1.4,0,1.42,-96.3795,42.3917
DBQ,1998-02-10 12:47,1.75,0,3.32,-90.7091,42.3984
MSN,1998-02-10 16:53,1.0,0,0.0,-89.3453,43.1406
