station,start_time,zr_hours,label,duration,lon,lat
CDR,1998-01-13 20:51,2.98,0,1.97,-103.0954,42.8376
GLD,1998-01-13 23:56,6.0,1,5.0,-101.6933,39.3672
CBK,1998-01-13 23:56,6.0,1,5.0,-101.0466,39.4274
SYF,1998-01-13 23:56,6.0,1,5.0,-101.7959,39.7611
BFF,1998-01-14 00:54,1.0,0,0.0,-103.5956,41.873999999999995
