station,start_time,zr_hours,label,duration,lon,lat
CAK,1979-12-13 06:08,8.87,1,7.87,-81.4422,40.9161
MFD,1979-12-13 07:00,3.0,0,2.0,-82.52,40.82
DUJ,1979-12-13 09:00,2.0,0,1.0,-78.9,41.18
YNG,1979-12-13 10:00,5.0,0,4.0,-80.6739,41.2544
FKL,1979-12-13 11:00,3.0,0,2.0,-79.8604,41.3779
BFD,1979-12-13 12:00,3.87,0,6.0,-78.6401,41.8031
POU,1979-12-13 15:00,3.35,0,7.0,-73.8842,41.6266
BDL,1979-12-13 22:00,2.0,0,1.37,-72.6825,41.9381
