station,start_time,zr_hours,label,duration,lon,lat
AZO,2008-02-06 08:53,7.97,1,10.0,-85.5519,42.2347
BTL,2008-02-06 08:53,6.0,1,8.0,-85.2515,42.3073
JXN,2008-02-06 10:56,6.0,1,18.0,-84.4594,42.2598
BUF,2008-02-06 12:53,8.02,1,14.02,-78.7358,42.9408
FZY,2008-02-06 12:54,9.0,1,17.0,-76.3831,43.3504
IAG,2008-02-06 13:53,9.0,1,14.0,-78.9462,43.1073
PEO,2008-02-06 15:53,7.0,1,10.0,-77.0529,42.6371
ALB,2008-02-06 23:51,7.0,1,6.0,-73.8036,42.7576
