station,start_time,zr_hours,label,duration,lon,lat
BIS,2000-04-14 06:39,0.97,0,0.22,-100.7458,46.7727
RAP,2000-04-14 15:26,0.93,0,0.85,-103.0574,44.0453
VTN,2000-04-14 15:52,14.45,1,43.0,-100.5489,42.8567
SFD,2000-04-14 16:15,1.42,0,1.63,-99.8421,43.3902
MBG,2000-04-14 19:55,1.0,0,0.0,-100.4078,45.5464
