station,start_time,zr_hours,label,duration,lon,lat
CMI,2000-02-03 10:53,1.0,0,0.0,-88.2778,40.0388
IND,2000-02-03 12:32,1.18,0,1.4,-86.3048,39.7084
EYE,2000-02-03 12:34,0.47,0,0.32,-86.2958,39.825
BMG,2000-02-03 14:08,0.75,0,0.0,-86.6167,39.146
GEZ,2000-02-03 14:11,0.47,0,0.0,-85.8048,39.5831
OSU,2000-02-03 18:10,0.72,0,0.47,-83.08,40.08
PTK,2000-02-03 22:30,0.38,0,0.0,-83.4201,42.6655
