station,start_time,zr_hours,label,duration,lon,lat
CYOW,2000-03-09 22:20,1.23,0,0.67,-75.6692,45.3225
OGS,2000-03-10 02:45,5.0,0,2.0,-75.4655,44.6819
BTV,2000-03-10 03:54,1.0,0,0.0,-73.15,44.47
MPV,2000-03-10 05:51,1.0,0,0.0,-72.5623,44.2035
MVL,2000-03-10 05:54,1.0,0,0.0,-72.61399999999999,44.5346
MLT,2000-03-10 06:33,0.6,0,0.33,-68.6856,45.6478
