station,start_time,zr_hours,label,duration,lon,lat
LOU,2003-02-19 12:08,2.22,0,2.47,-85.6637,38.228
GEZ,2003-02-19 12:53,4.32,0,4.12,-85.8048,39.5831
FFT,2003-02-19 13:53,1.85,0,5.65,-84.9033,38.1847
DAY,2003-02-19 14:18,1.6,0,0.6,-84.2186,39.9061
MGY,2003-02-19 14:22,0.62,0,0.52,-84.2249,39.589
