station,start_time,zr_hours,label,duration,lon,lat
EWR,2003-01-03 11:20,0.7,0,6.33,-74.1693,40.6827
SMQ,2003-01-03 11:53,6.02,1,18.15,-74.6694,40.6239
DYL,2003-01-03 11:54,2.72,0,3.0,-75.1223,40.333
CDW,2003-01-03 12:34,13.38,1,18.32,-74.2831,40.8764
MUI,2003-01-03 12:55,71.0,1,0.0,-76.5693,40.4348
