station,start_time,zr_hours,label,duration,lon,lat
WLD,2017-01-13 22:00,9.57,1,34.9,-97.0369,37.1681
GOK,2017-01-13 22:45,6.03,1,32.17,-97.4156,35.8498
ICT,2017-01-13 23:12,11.17,1,39.47,-97.43,37.65
IAB,2017-01-13 23:36,9.63,1,38.37,-97.2673,37.623000000000005
RVS,2017-01-13 23:40,5.23,0,16.75,-95.9846,36.0396
CNU,2017-01-13 23:55,11.05,1,38.95,-95.4842,37.6703
AAO,2017-01-14 00:08,5.25,0,31.62,-97.22,37.75
