station,start_time,zr_hours,label,duration,lon,lat
YIP,2017-03-17 22:08,1.78,0,2.87,-83.5304,42.2379
ARB,2017-03-17 22:13,0.32,0,0.28,-83.7397,42.224
BJJ,2017-03-17 22:35,2.25,0,2.67,-81.8882,40.8748
PHD,2017-03-17 22:53,1.13,0,1.78,-81.4236,40.4719
CYCK,2017-03-17 23:07,6.03,1,27.0,-82.0817,42.3062
LPR,2017-03-17 23:22,1.3,0,1.22,-82.1794,41.3461
AKR,2017-03-17 23:30,0.4,0,0.33,-81.4669,41.0375
CYZR,2017-03-18 00:43,0.18,0,0.17,-82.3073,42.9951
