station,start_time,zr_hours,label,duration,lon,lat
CMX,1980-01-15 11:00,3.0,0,6.0,-88.4891,47.1684
DLH,1980-01-15 11:00,1.0,0,0.0,-92.1936,46.8421
EAU,1980-01-15 12:00,3.0,0,2.0,-91.4843,44.8658
LSE,1980-01-15 14:00,2.0,0,1.0,-91.25,43.88
IWD,1980-01-15 14:00,1.0,0,0.0,-90.1314,46.5275
