station,start_time,zr_hours,label,duration,lon,lat
OSH,2005-01-02 01:34,1.37,0,1.67,-88.557,43.9844
RHI,2005-01-02 02:20,0.37,0,0.13,-89.4675,45.6312
EAU,2005-01-02 02:35,1.1,0,2.48,-91.4843,44.8658
AUW,2005-01-02 02:35,4.1,0,4.32,-89.6266,44.9262
ISW,2005-01-02 03:01,3.7,0,3.03,-89.8369,44.3592
