station,start_time,zr_hours,label,duration,lon,lat
MLT,2007-03-22 08:45,5.22,0,5.22,-68.6856,45.6478
OLD,2007-03-22 08:53,3.0,0,2.0,-68.6743,44.9525
BGR,2007-03-22 08:53,3.0,0,2.0,-68.8281,44.8074
CAR,2007-03-22 09:20,3.72,0,3.57,-68.02,46.87
FVE,2007-03-22 09:34,3.13,0,2.48,-68.3127,47.2855
CYSL,2007-03-22 10:00,3.77,0,3.0,-67.8319,47.1578
CYYY,2007-03-22 10:31,2.48,0,1.48,-68.2081,48.6086
HUL,2007-03-22 10:39,2.73,0,2.23,-67.7921,46.1231
CYCX,2007-03-22 10:49,2.38,0,2.18,-66.4367,45.8377
