station,start_time,zr_hours,label,duration,lon,lat
AZO,2007-03-01 09:53,1.0,0,0.0,-85.5519,42.2347
ARB,2007-03-01 09:53,6.0,1,7.0,-83.7397,42.224
LAN,2007-03-01 10:53,5.0,0,6.0,-84.58,42.78
ADG,2007-03-01 10:53,6.0,1,5.97,-84.0773,41.8677
BTL,2007-03-01 10:53,1.0,0,0.0,-85.2515,42.3073
TDZ,2007-03-01 10:53,1.0,0,0.0,-83.4764,41.5631
GRR,2007-03-01 10:56,4.0,0,5.0,-85.52,42.88
