station,start_time,zr_hours,label,duration,lon,lat
CBK,1994-12-05 04:00,18.33,1,35.33,-101.0466,39.4274
GLD,1994-12-05 04:00,11.32,1,35.33,-101.6933,39.3672
LNK,1994-12-05 04:00,9.2,1,38.0,-96.7647,40.8478
SYF,1994-12-05 04:00,18.33,1,35.33,-101.7959,39.7611
DDC,1994-12-05 11:00,16.93,1,37.0,-99.9654,37.7631
