station,start_time,zr_hours,label,duration,lon,lat
LWV,2000-12-13 19:29,5.15,0,5.12,-87.6055,38.7643
FTK,2000-12-13 20:22,6.37,1,5.88,-85.9721,37.9071
BMG,2000-12-13 21:01,4.22,0,4.52,-86.6167,39.146
BWG,2000-12-13 21:33,1.67,0,1.33,-86.4197,36.9645
LEX,2000-12-13 21:45,3.15,0,2.77,-84.6058,38.0408
BAK,2000-12-13 21:50,5.0,0,4.0,-85.8963,39.2619
LOU,2000-12-13 21:53,7.12,1,8.12,-85.6637,38.228
FFT,2000-12-13 22:00,6.38,1,6.53,-84.9033,38.1847
GEZ,2000-12-13 22:00,1.88,0,0.88,-85.8048,39.5831
CVG,2000-12-13 22:19,6.53,1,5.53,-84.6717,39.0431
LUK,2000-12-13 22:29,13.3,1,14.4,-84.4186,39.1033
LOZ,2000-12-13 23:05,0.8,0,0.0,-84.07700000000001,37.086999999999996
HAO,2000-12-13 23:06,3.37,0,5.62,-84.5219,39.3638
FFO,2000-12-13 23:13,5.42,0,5.52,-84.0483,39.8261
DAY,2000-12-13 23:16,3.43,0,4.5,-84.2186,39.9061
MGY,2000-12-13 23:22,6.42,1,6.52,-84.2249,39.589
INT,2000-12-13 23:54,6.52,1,12.3,-80.222,36.1337
CHO,2000-12-14 00:15,9.92,1,11.63,-78.4529,38.1386
GSO,2000-12-14 00:19,8.48,1,11.58,-79.9436,36.0975
ILN,2000-12-14 00:20,5.82,0,5.57,-83.8217,39.4203
HTS,2000-12-14 00:24,4.77,0,4.57,-82.555,38.365
CMH,2000-12-14 00:28,7.92,1,8.38,-82.8808,39.9914
LHQ,2000-12-14 00:31,3.77,0,14.37,-82.6571,39.7556
OSU,2000-12-14 00:44,8.65,1,8.15,-83.08,40.08
HLG,2000-12-14 00:53,5.62,0,5.72,-80.6463,40.175
ROA,2000-12-14 00:57,8.23,1,7.95,-79.9737,37.3172
VTA,2000-12-14 01:02,4.75,0,5.0,-82.4618,40.0247
ZZV,2000-12-14 01:07,2.85,0,2.77,-81.8921,39.9444
PIT,2000-12-14 01:11,5.42,0,4.98,-80.2329,40.4915
IAD,2000-12-14 01:26,10.33,1,10.95,-77.4473,38.9348
MNN,2000-12-14 01:27,1.45,0,5.85,-83.0635,40.6162
ADW,2000-12-14 01:30,10.02,1,10.42,-76.867,38.8108
MGW,2000-12-14 01:32,1.92,0,1.35,-79.9163,39.6429
DAA,2000-12-14 01:33,7.75,1,11.43,-77.181,38.715
MFD,2000-12-14 01:35,4.18,0,9.6,-82.52,40.82
LYH,2000-12-14 01:45,7.17,1,7.68,-79.2067,37.3208
PKB,2000-12-14 01:53,2.1,0,2.27,-81.4392,39.3451
PHD,2000-12-14 01:53,4.35,0,4.18,-81.4236,40.4719
AGC,2000-12-14 01:53,4.23,0,4.0,-79.9217,40.3547
MRB,2000-12-14 02:08,6.2,1,8.08,-77.9847,39.4019
BJJ,2000-12-14 02:11,4.73,0,4.7,-81.8882,40.8748
DCA,2000-12-14 02:16,8.85,1,9.12,-77.0346,38.8472
JST,2000-12-14 02:23,5.88,0,8.93,-78.8339,40.3161
AKR,2000-12-14 02:27,4.68,0,4.95,-81.4669,41.0375
AOO,2000-12-14 02:30,7.7,1,7.38,-78.32,40.2964
BWI,2000-12-14 02:38,3.62,0,3.6,-76.6683,39.1754
HGR,2000-12-14 02:40,6.57,1,7.52,-77.7297,39.7078
CAK,2000-12-14 02:51,6.75,1,9.0,-81.4422,40.9161
YNG,2000-12-14 03:04,6.45,1,5.78,-80.6739,41.2544
THV,2000-12-14 03:17,12.48,1,7.6,-76.873,39.917
CXY,2000-12-14 03:39,5.6,0,7.28,-76.8515,40.2171
PSB,2000-12-14 03:47,6.0,1,5.0,-78.0873,40.8844
UNV,2000-12-14 03:47,6.0,1,5.0,-77.85,40.85
MDT,2000-12-14 03:48,6.4,1,7.13,-76.7633,40.1936
NYG,2000-12-14 03:55,3.55,0,3.0,-77.3053,38.5017
LNS,2000-12-14 03:57,4.58,0,6.15,-76.2944,40.1203
GKJ,2000-12-14 04:00,1.88,0,10.0,-80.2147,41.6265
RDG,2000-12-14 04:02,6.2,1,8.1,-75.9652,40.3785
ILG,2000-12-14 04:07,2.73,0,1.73,-75.6008,39.6728
PTW,2000-12-14 04:28,4.5,0,4.7,-75.5572,40.2383
WRI,2000-12-14 04:30,1.13,0,0.52,-74.5917,40.0156
DYL,2000-12-14 04:34,1.65,0,2.68,-75.1223,40.333
IPT,2000-12-14 05:09,3.52,0,6.75,-76.9217,41.2433
PNE,2000-12-14 05:34,5.78,0,6.68,-75.0134,40.0789
LGA,2000-12-14 05:37,1.4,0,1.4,-73.8803,40.7794
JFK,2000-12-14 05:38,1.08,0,1.22,-73.7622,40.6386
EWR,2000-12-14 05:39,3.27,0,3.38,-74.1693,40.6827
NYC,2000-12-14 05:51,2.0,0,2.0,-73.9692,40.779
SWF,2000-12-14 06:15,6.5,1,5.58,-74.1048,41.5041
MPO,2000-12-14 06:35,5.43,0,6.48,-75.3794,41.1389
TTN,2000-12-14 06:39,1.35,0,1.23,-74.8159,40.2768
DXR,2000-12-14 06:44,7.12,1,7.37,-73.48,41.37
SMQ,2000-12-14 06:53,2.53,0,3.57,-74.6694,40.6239
MGJ,2000-12-14 07:03,4.95,0,6.85,-74.265,41.5092
CDW,2000-12-14 07:14,3.3,0,3.17,-74.2831,40.8764
PHL,2000-12-14 07:21,0.55,0,0.0,-75.2311,39.8683
MMK,2000-12-14 07:56,6.4,1,7.25,-72.83,41.51
BDL,2000-12-14 08:21,6.27,1,5.73,-72.6825,41.9381
PVD,2000-12-14 08:31,6.22,1,6.33,-71.4325,41.7219
FMH,2000-12-14 08:48,1.9,0,1.12,-70.5215,41.6585
HPN,2000-12-14 08:50,1.0,0,0.0,-73.7075,41.0669
IJD,2000-12-14 08:52,3.87,0,4.0,-72.1836,41.7419
UUU,2000-12-14 08:53,1.83,0,1.63,-71.2815,41.5324
HFD,2000-12-14 08:53,5.57,0,6.15,-72.6494,41.7367
EWB,2000-12-14 09:05,2.1,0,1.8,-70.9583,41.6764
GON,2000-12-14 09:08,0.98,0,0.8,-72.05,41.33
WST,2000-12-14 09:11,1.25,0,0.7,-71.7989,41.3497
TAN,2000-12-14 09:17,2.75,0,2.7,-71.0211,41.8756
PYM,2000-12-14 09:31,1.07,0,1.15,-70.7288,41.909
POU,2000-12-14 09:53,3.5,0,3.0,-73.8842,41.6266
ABE,2000-12-14 10:21,2.5,0,1.63,-75.4492,40.6508
BAF,2000-12-14 10:29,3.57,0,5.07,-72.7161,42.1578
OWD,2000-12-14 11:09,2.48,0,2.73,-71.1733,42.1912
BOS,2000-12-14 11:54,0.55,0,1.12,-71.0097,42.3606
CEF,2000-12-14 11:56,3.47,0,3.0,-72.5348,42.193999999999996
PSF,2000-12-14 12:41,2.33,0,2.4,-73.2892,42.4272
ALB,2000-12-14 12:41,1.68,0,1.17,-73.8036,42.7576
ORH,2000-12-14 12:54,4.32,0,4.0,-71.8757,42.2673
ORE,2000-12-14 13:07,3.98,0,3.75,-72.2886,42.5701
FIT,2000-12-14 13:22,5.15,0,4.73,-71.7558,42.5519
AQW,2000-12-14 13:39,1.22,0,0.22,-73.1702,42.6962
BED,2000-12-14 13:40,3.67,0,4.42,-71.289,42.47
DDH,2000-12-14 14:13,0.68,0,0.0,-73.2486,42.8935
LWM,2000-12-14 14:35,3.62,0,3.32,-71.1234,42.7172
MHT,2000-12-14 14:53,2.88,0,3.0,-71.4358,42.9328
AFN,2000-12-14 15:24,1.3,0,1.92,-72.003,42.8051
PSM,2000-12-14 15:28,3.1,0,2.45,-70.8233,43.0779
CON,2000-12-14 15:40,4.77,0,4.88,-71.5011,43.1953
ASH,2000-12-14 15:45,1.0,0,0.0,-71.5148,42.7818
GFL,2000-12-14 15:47,1.0,0,0.0,-73.6103,43.3412
DAW,2000-12-14 15:57,1.92,0,3.9,-70.92,43.28
PWM,2000-12-14 17:11,3.63,0,3.67,-70.3044,43.6424
NHZ,2000-12-14 18:55,2.58,0,2.0,-69.9386,43.8922
