station,start_time,zr_hours,label,duration,lon,lat
IAB,2001-02-09 01:14,6.33,1,7.68,-97.2673,37.623000000000005
EMP,2001-02-09 01:42,5.58,0,6.18,-96.1897,38.3306
TOP,2001-02-09 01:56,5.28,0,6.32,-95.62,39.07
MHK,2001-02-09 02:10,1.58,0,1.52,-96.6778,39.1353
LWC,2001-02-09 02:12,6.37,1,6.25,-95.2115,39.0077
FOE,2001-02-09 02:30,3.68,0,5.7,-95.6636,38.9509
FLV,2001-02-09 02:38,10.03,1,9.25,-94.9147,39.3683
MCI,2001-02-09 02:38,10.03,1,9.25,-94.7139,39.2976
OJC,2001-02-09 04:33,6.05,1,5.98,-94.7392,38.85
