station,start_time,zr_hours,label,duration,lon,lat
FKL,1986-02-01 15:00,2.83,0,3.0,-79.8604,41.3779
ERI,1986-02-01 15:15,0.75,0,0.0,-80.18,42.08
DUJ,1986-02-01 15:55,7.25,1,10.08,-78.9,41.18
YNG,1986-02-01 16:00,0.52,0,0.0,-80.6739,41.2544
JST,1986-02-01 16:00,1.57,0,3.0,-78.8339,40.3161
BFD,1986-02-01 17:35,8.47,1,9.42,-78.6401,41.8031
JHW,1986-02-01 18:00,4.0,0,4.0,-79.258,42.1534
UNV,1986-02-01 19:00,6.95,1,8.0,-77.85,40.85
PSB,1986-02-01 19:00,6.95,1,8.0,-78.0873,40.8844
