station,start_time,zr_hours,label,duration,lon,lat
IPT,1986-02-01 21:00,5.33,0,7.0,-76.9217,41.2433
ITH,1986-02-01 22:00,13.0,1,5.0,-76.4584,42.49100000000001
BGM,1986-02-01 22:00,3.58,0,6.0,-75.9797,42.2086
ROC,1986-02-01 22:00,2.82,0,7.0,-77.6767,43.1167
SYR,1986-02-01 23:00,2.23,0,3.0,-76.1063,43.1112
ELM,1986-02-01 23:00,5.0,0,4.0,-76.8994,42.1571
AVP,1986-02-02 00:06,2.73,0,1.9,-75.7227,41.3335
