station,start_time,zr_hours,label,duration,lon,lat
FDY,1986-02-01 11:00,1.0,0,0.0,-83.6686,41.0136
GRR,1986-02-01 11:00,4.47,0,6.0,-85.52,42.88
LAN,1986-02-01 12:00,4.83,0,7.0,-84.58,42.78
JXN,1986-02-01 12:00,6.0,1,5.0,-84.4594,42.2598
DTW,1986-02-01 13:00,6.08,1,6.0,-83.33,42.23
FNT,1986-02-01 13:00,5.27,0,5.0,-83.7494,42.9667
CLE,1986-02-01 13:03,0.85,0,1.95,-81.8528,41.405
