station,start_time,zr_hours,label,duration,lon,lat
CEY,1993-12-28 02:02,9.02,1,9.97,-88.3728,36.6646
PAH,1993-12-28 02:02,9.02,1,9.97,-88.7744,37.0563
FTK,1993-12-28 02:12,3.8,0,9.18,-85.9721,37.9071
OWB,1993-12-28 02:30,2.38,0,9.75,-87.1668,37.7388
EVV,1993-12-28 03:00,5.37,0,9.0,-87.5205,38.0441
SDF,1993-12-28 03:02,5.6,0,5.38,-85.736,38.1744
LEX,1993-12-28 03:14,3.37,0,2.77,-84.6058,38.0408
LOU,1993-12-28 03:19,5.18,0,4.68,-85.6637,38.228
