station,start_time,zr_hours,label,duration,lon,lat
CYRQ,2020-03-09 22:44,8.78,1,15.57,-72.6794,46.3528
CYMX,2020-03-09 22:52,14.68,1,18.13,-74.0387,45.6795
CYUL,2020-03-10 02:09,6.0,1,8.6,-73.7414,45.4683
CYQB,2020-03-10 03:44,20.62,1,20.62,-71.3933,46.7911
CYOY,2020-03-10 05:33,16.9,1,18.58,-71.5033,46.9003
FVE,2020-03-10 11:30,9.67,1,14.17,-68.3127,47.2855
