station,start_time,zr_hours,label,duration,lon,lat
RDU,2000-01-23 11:16,13.8,1,17.72,-78.7819,35.8922
GSO,2000-01-23 11:22,8.2,1,9.82,-79.9436,36.0975
IGX,2000-01-23 11:31,6.78,1,14.42,-79.0642,35.9333
BUY,2000-01-23 11:42,6.93,1,13.2,-79.4749,36.0485
RWI,2000-01-23 11:55,5.57,0,4.87,-77.8919,35.8562
DAN,2000-01-23 12:31,1.07,0,0.3,-79.3361,36.5729
INT,2000-01-23 12:38,3.85,0,4.48,-80.222,36.1337
POB,2000-01-23 12:55,1.7,0,1.0,-79.0145,35.1709
