station,start_time,zr_hours,label,duration,lon,lat
MSS,1994-11-28 06:00,6.4,1,7.0,-74.8456,44.9358
GFL,1994-11-28 08:00,7.0,1,6.0,-73.6103,43.3412
PBG,1994-11-28 10:00,0.68,0,1.0,-73.4624,44.6382
BTV,1994-11-28 10:00,1.0,0,2.0,-73.15,44.47
CYOW,1994-11-28 11:00,3.63,0,3.0,-75.6692,45.3225
LEB,1994-11-28 12:00,3.0,0,2.0,-72.3042,43.6261
AUG,1994-11-28 14:57,4.45,0,5.63,-69.8,44.32
MWN,1994-11-28 15:00,4.0,0,9.0,-71.3035,44.2708
CAR,1994-11-29 00:14,2.37,0,2.77,-68.02,46.87
