station,start_time,zr_hours,label,duration,lon,lat
FOK,1995-02-04 13:00,1.0,0,0.0,-72.6318,40.8436
GON,1995-02-04 17:00,1.0,0,0.0,-72.05,41.33
HVN,1995-02-04 17:45,0.25,0,0.0,-72.8868,41.2638
HPN,1995-02-04 18:00,3.37,0,4.0,-73.7075,41.0669
DXR,1995-02-04 19:00,2.0,0,1.0,-73.48,41.37
BOS,1995-02-04 21:00,0.12,0,0.0,-71.0097,42.3606
MHT,1995-02-05 04:00,1.0,0,0.0,-71.4358,42.9328
