station,start_time,zr_hours,label,duration,lon,lat
ELD,1983-12-21 04:00,12.27,1,12.0,-92.8133,33.221
BAD,1983-12-21 05:00,5.0,0,10.0,-93.6626,32.5019
TXK,1983-12-21 05:00,9.0,1,8.0,-93.991,33.4537
MLU,1983-12-21 05:00,0.53,0,0.0,-92.0377,32.5109
SHV,1983-12-21 05:00,6.33,1,19.0,-93.8244,32.4472
FSM,1983-12-21 05:11,1.25,0,9.4,-94.3674,35.3366
