station,start_time,zr_hours,label,duration,lon,lat
SUX,2020-11-10 01:42,8.62,1,13.17,-96.3795,42.3917
TQE,2020-11-10 02:54,6.02,1,6.37,-96.1779,41.7635
EST,2020-11-10 03:04,6.83,1,16.8,-94.7476,43.4008
SPW,2020-11-10 04:53,7.57,1,12.57,-95.2101,43.1682
MCW,2020-11-10 05:49,7.35,1,18.8,-93.3261,43.1544
RST,2020-11-10 08:43,7.63,1,17.18,-92.4916,43.9041
