station,start_time,zr_hours,label,duration,lon,lat
CYGR,2018-01-04 19:37,0.98,0,6.38,-61.7781,47.4247
CYCX,2018-01-05 03:00,2.05,0,4.2,-66.4367,45.8377
CYSJ,2018-01-05 08:00,0.43,0,0.0,-65.8856,45.3181
CZBF,2018-01-05 08:00,1.38,0,1.0,-65.7483,47.6292
CYGP,2018-01-05 08:11,1.82,0,1.2,-64.4781,48.7769
CYAY,2018-01-05 10:14,1.85,0,19.92,-56.0856,51.3906
CYDF,2018-01-05 10:29,2.27,0,1.52,-57.3975,49.2108
CYNA,2018-01-05 11:04,1.53,0,8.27,-61.7889,50.19
CYGV,2018-01-05 18:34,0.2,0,0.18,-63.6114,50.2819
