station,start_time,zr_hours,label,duration,lon,lat
MTO,2000-01-20 00:37,2.98,0,6.27,-88.2792,39.4779
HUF,2000-01-20 02:05,2.8,0,2.58,-87.3076,39.4515
BMG,2000-01-20 03:03,2.25,0,1.83,-86.6167,39.146
HKY,2000-01-20 06:21,0.65,0,0.9,-81.3896,35.7412
FFO,2000-01-20 06:26,1.73,0,1.48,-84.0483,39.8261
RDU,2000-01-20 09:06,0.75,0,0.0,-78.7819,35.8922
HTS,2000-01-20 10:31,7.02,1,19.33,-82.555,38.365
RZZ,2000-01-20 12:09,0.53,0,0.0,-77.71,36.44
