station,start_time,zr_hours,label,duration,lon,lat
HON,2000-01-19 09:55,0.73,0,3.73,-98.2286,44.3852
SUX,2000-01-19 10:01,0.47,0,0.0,-96.3795,42.3917
FSD,2000-01-19 10:24,0.28,0,0.0,-96.7536,43.5769
LWD,2000-01-19 11:56,1.17,0,5.6,-93.9005,40.6306
DSM,2000-01-19 12:54,2.28,0,7.0,-93.6531,41.534
ALN,2000-01-19 20:45,2.0,0,1.0,-90.046,38.8899
SPI,2000-01-19 22:36,2.25,0,2.3,-89.6839,39.8447
BRL,2000-01-19 22:45,0.13,0,0.0,-91.1255,40.7729
