station,start_time,zr_hours,label,duration,lon,lat
JAN,2000-01-27 23:16,0.93,0,4.63,-90.08,32.32
GWO,2000-01-28 02:35,4.15,0,5.3,-90.0847,33.4943
NMM,2000-01-28 05:25,0.5,0,0.0,-88.5556,32.5521
CBM,2000-01-28 08:55,5.32,0,5.0,-88.4438,33.6438
BHM,2000-01-28 12:02,0.5,0,0.0,-86.7449,33.5655
PBF,2000-01-28 14:50,0.6,0,0.0,-91.9347,34.175
GLH,2000-01-28 14:50,1.08,0,0.0,-90.9856,33.4829
IDL,2000-01-28 14:50,1.08,0,0.0,-90.6789,33.4857
