station,start_time,zr_hours,label,duration,lon,lat
BLF,1991-01-11 11:44,7.27,1,6.27,-81.2077,37.2958
ERI,1991-01-11 12:00,10.37,1,10.0,-80.18,42.08
DUJ,1991-01-11 13:00,19.0,1,25.0,-78.9,41.18
AOO,1991-01-11 15:00,11.08,1,17.0,-78.32,40.2964
MRB,1991-01-11 16:00,9.0,1,12.0,-77.9847,39.4019
CXY,1991-01-11 17:23,9.95,1,9.62,-76.8515,40.2171
ELM,1991-01-11 22:00,6.0,1,7.0,-76.8994,42.1571
BFD,1991-01-11 22:27,6.55,1,5.55,-78.6401,41.8031
