station,start_time,zr_hours,label,duration,lon,lat
SLK,1988-12-20 10:50,2.92,0,0.0,-74.2062,44.3853
MSS,1988-12-20 11:00,1.0,0,0.0,-74.8456,44.9358
LEB,1988-12-20 11:00,0.88,0,1.0,-72.3042,43.6261
CON,1988-12-20 11:39,0.42,0,0.35,-71.5011,43.1953
MPV,1988-12-20 12:00,0.67,0,1.0,-72.5623,44.2035
PBG,1988-12-20 12:00,2.0,0,1.0,-73.4624,44.6382
PWM,1988-12-20 12:55,1.1,0,1.08,-70.3044,43.6424
AUG,1988-12-20 15:00,1.28,0,1.0,-69.8,44.32
