station,start_time,zr_hours,label,duration,lon,lat
LTS,1989-02-17 02:54,0.47,0,2.73,-99.2667,34.6671
AMA,1989-02-17 07:00,2.72,0,3.0,-101.7059,35.2194
GAG,1989-02-17 10:18,6.7,1,7.7,-99.7764,36.2955
DHT,1989-02-17 11:00,1.18,0,1.0,-102.5473,36.0226
END,1989-02-17 12:00,2.0,0,1.0,-97.9165,36.3392
LBL,1989-02-17 14:00,1.0,0,0.0,-100.9599,37.0442
GCK,1989-02-17 14:00,0.25,0,0.0,-100.7244,37.9275
DDC,1989-02-17 15:00,2.0,0,1.0,-99.9654,37.7631
PNC,1989-02-17 16:00,1.42,0,1.25,-97.1,36.73
