station,start_time,zr_hours,label,duration,lon,lat
PHF,1989-03-08 21:00,1.0,0,0.0,-76.493,37.1319
DAN,1989-03-08 23:09,0.85,0,0.0,-79.3361,36.5729
GSB,1989-03-09 00:00,9.25,1,14.0,-77.9606,35.3394
FCI,1989-03-09 02:26,0.63,0,0.57,-77.5248,37.4064
RIC,1989-03-09 02:26,0.63,0,0.57,-77.3234,37.5115
LFI,1989-03-09 12:05,0.22,0,0.0,-76.3605,37.0828
RWI,1989-03-09 14:00,1.0,0,0.0,-77.8919,35.8562
