station,start_time,zr_hours,label,duration,lon,lat
MGY,2020-02-12 23:55,0.42,0,11.0,-84.2249,39.589
DAY,2020-02-13 00:30,1.0,0,1.33,-84.2186,39.9061
CMH,2020-02-13 01:09,0.1,0,0.02,-82.8808,39.9914
MNN,2020-02-13 02:20,0.78,0,2.23,-83.0635,40.6162
MFD,2020-02-13 02:30,1.68,0,3.08,-82.52,40.82
BJJ,2020-02-13 02:45,3.33,0,6.08,-81.8882,40.8748
YNG,2020-02-13 03:02,6.68,1,6.63,-80.6739,41.2544
UCP,2020-02-13 03:56,0.35,0,0.0,-80.4134,41.0253
