station,start_time,zr_hours,label,duration,lon,lat
ENW,2020-01-11 10:53,0.87,0,1.62,-87.9381,42.595
RAC,2020-01-11 11:25,0.75,0,0.67,-87.8136,42.7611
UGN,2020-01-11 11:30,1.33,0,4.92,-87.8679,42.4222
SBM,2020-01-11 12:33,0.12,0,0.03,-87.8517,43.7698
MKG,2020-01-11 12:55,5.68,0,7.92,-86.2367,43.1711
MWC,2020-01-11 13:00,1.25,0,0.75,-88.0344,43.1104
DPA,2020-01-11 13:10,1.9,0,7.5,-88.2486,41.9078
BIV,2020-01-11 14:24,6.58,1,10.02,-86.0967,42.7461
GRR,2020-01-11 14:25,9.47,1,11.75,-85.52,42.88
