station,start_time,zr_hours,label,duration,lon,lat
GRR,1991-12-29 04:00,0.05,0,0.0,-85.52,42.88
IAG,1991-12-29 04:00,0.38,0,0.0,-78.9462,43.1073
ROC,1991-12-29 05:00,2.0,0,1.0,-77.6767,43.1167
FNT,1991-12-29 07:00,0.77,0,2.0,-83.7494,42.9667
MKG,1991-12-29 07:00,0.28,0,0.0,-86.2367,43.1711
LAN,1991-12-29 08:00,0.43,0,0.0,-84.58,42.78
PTK,1991-12-29 11:00,1.0,0,0.0,-83.4201,42.6655
YIP,1991-12-29 13:00,1.25,0,1.0,-83.5304,42.2379
MFD,1991-12-29 23:00,1.0,0,0.0,-82.52,40.82
