station,start_time,zr_hours,label,duration,lon,lat
GTB,1991-12-07 13:00,0.25,0,0.0,-75.7195,44.0556
UCA,1991-12-07 13:00,2.0,0,1.0,-75.3839,43.1451
RME,1991-12-07 13:00,0.38,0,1.0,-75.3953,43.2239
ALB,1991-12-07 15:00,2.42,0,2.0,-73.8036,42.7576
GFL,1991-12-07 18:00,1.57,0,1.0,-73.6103,43.3412
