station,start_time,zr_hours,label,duration,lon,lat
IXD,2015-11-27 11:03,9.88,1,25.35,-94.8903,38.8309
OJC,2015-11-27 11:27,9.67,1,25.43,-94.7392,38.85
MCI,2015-11-27 11:53,17.87,1,50.0,-94.7139,39.2976
LWC,2015-11-27 12:20,9.12,1,32.53,-95.2115,39.0077
TOP,2015-11-27 12:31,9.85,1,33.88,-95.62,39.07
STJ,2015-11-27 12:53,3.1,0,3.6,-94.9097,39.7719
CNU,2015-11-27 13:21,6.28,1,21.52,-95.4842,37.6703
