station,start_time,zr_hours,label,duration,lon,lat
FRI,1982-12-27 12:00,2.0,0,1.0,-96.7645,39.0526
LNK,1982-12-27 13:00,2.42,0,6.0,-96.7647,40.8478
BIE,1982-12-27 13:00,12.0,1,11.0,-96.7541,40.3013
OFF,1982-12-27 14:00,8.0,1,12.0,-95.9125,41.1183
FNB,1982-12-27 14:00,7.0,1,6.0,-95.59200000000001,40.0788
MHK,1982-12-27 15:00,0.5,0,0.0,-96.6778,39.1353
