station,start_time,zr_hours,label,duration,lon,lat
MLT,2012-01-02 04:35,2.43,0,2.45,-68.6856,45.6478
CYQB,2012-01-02 05:00,2.67,0,3.0,-71.3933,46.7911
CYOY,2012-01-02 05:20,0.4,0,0.22,-71.5033,46.9003
CAR,2012-01-02 05:30,0.25,0,0.0,-68.02,46.87
HUL,2012-01-02 06:42,0.3,0,0.18,-67.7921,46.1231
CZBF,2012-01-02 08:16,2.25,0,2.73,-65.7483,47.6292
