station,start_time,zr_hours,label,duration,lon,lat
CYMO,2012-03-13 03:42,1.65,0,3.88,-80.6141,51.2891
CYMT,2012-03-13 09:00,0.58,0,0.0,-74.5281,49.7719
CYRJ,2012-03-13 11:22,1.62,0,5.95,-72.2656,48.52
CYBG,2012-03-13 11:38,7.4,1,17.82,-70.9869,48.3339
CYKQ,2012-03-13 13:00,0.82,0,0.0,-78.7584,51.4733
CZEM,2012-03-13 13:00,3.25,0,3.0,-78.5225,52.2264
CYQB,2012-03-13 13:42,7.15,1,15.93,-71.3933,46.7911
