station,start_time,zr_hours,label,duration,lon,lat
MWN,2012-03-25 11:52,6.97,1,6.0,-71.3035,44.2708
CYBG,2012-03-25 15:51,2.8,0,9.15,-70.9869,48.3339
FVE,2012-03-25 19:25,3.18,0,4.47,-68.3127,47.2855
CAR,2012-03-25 21:39,0.78,0,0.37,-68.02,46.87
CYFC,2012-03-25 21:41,0.07,0,0.0,-66.5278,45.8722
CYBC,2012-03-25 22:01,0.28,0,0.08,-68.2044,49.1325
CYOY,2012-03-26 03:03,0.2,0,0.1,-71.5033,46.9003
CYPD,2012-03-26 06:23,4.75,0,16.33,-61.3681,45.6567
