station,start_time,zr_hours,label,duration,lon,lat
LTS,1979-12-12 09:00,7.0,1,11.0,-99.2667,34.6671
FSI,1979-12-12 10:00,5.0,0,8.0,-98.4033,34.6449
OKC,1979-12-12 10:00,3.0,0,5.0,-97.6006,35.3889
HBR,1979-12-12 10:00,4.0,0,7.0,-99.0514,34.9913
MLC,1979-12-12 10:00,13.0,1,14.0,-95.7831,34.8822
SPS,1979-12-12 11:00,11.0,1,11.0,-98.4928,33.9786
