station,start_time,zr_hours,label,duration,lon,lat
JST,1980-11-27 14:12,4.65,0,6.95,-78.8339,40.3161
AGC,1980-11-27 15:00,1.0,0,0.0,-79.9217,40.3547
YNG,1980-11-27 15:00,1.0,0,0.0,-80.6739,41.2544
PIT,1980-11-27 15:05,0.92,0,0.0,-80.2329,40.4915
AOO,1980-11-27 16:00,6.0,1,8.0,-78.32,40.2964
