station,start_time,zr_hours,label,duration,lon,lat
LEB,1980-12-08 01:00,2.0,0,1.0,-72.3042,43.6261
PBG,1980-12-08 01:00,3.0,0,2.0,-73.4624,44.6382
MPV,1980-12-08 02:00,3.0,0,2.0,-72.5623,44.2035
GFL,1980-12-08 02:00,4.0,0,3.0,-73.6103,43.3412
CON,1980-12-08 02:11,1.33,0,0.82,-71.5011,43.1953
