station,start_time,zr_hours,label,duration,lon,lat
MUI,2019-12-16 23:57,1.98,0,5.45,-76.5693,40.4348
LNS,2019-12-17 00:02,2.63,0,2.55,-76.2944,40.1203
PTW,2019-12-17 00:49,4.52,0,5.68,-75.5572,40.2383
ABE,2019-12-17 00:50,10.73,1,14.27,-75.4492,40.6508
SMQ,2019-12-17 01:00,7.65,1,10.25,-74.6694,40.6239
CXY,2019-12-17 01:36,4.15,0,4.15,-76.8515,40.2171
SEG,2019-12-17 03:15,3.17,0,3.13,-76.8639,40.8206
