station,start_time,zr_hours,label,duration,lon,lat
MHT,2019-12-30 08:35,5.62,0,30.17,-71.4358,42.9328
ASH,2019-12-30 10:10,4.3,0,28.67,-71.5148,42.7818
MPV,2019-12-30 10:20,3.35,0,8.92,-72.5623,44.2035
DAW,2019-12-30 10:50,1.38,0,1.72,-70.92,43.28
PSF,2019-12-30 10:50,3.08,0,13.08,-73.2892,42.4272
FIT,2019-12-30 11:55,7.03,1,23.95,-71.7558,42.5519
ORE,2019-12-30 12:20,3.8,0,22.9,-72.2886,42.5701
