station,start_time,zr_hours,label,duration,lon,lat
MKG,2019-12-14 21:29,0.9,0,7.77,-86.2367,43.1711
GRR,2019-12-14 22:20,1.9,0,8.33,-85.52,42.88
GOV,2019-12-14 22:26,0.72,0,0.53,-84.73,44.68
BTL,2019-12-14 23:45,0.47,0,0.5,-85.2515,42.3073
AZO,2019-12-14 23:53,0.95,0,0.87,-85.5519,42.2347
LAN,2019-12-15 00:30,0.78,0,6.58,-84.58,42.78
GSH,2019-12-15 00:37,0.22,0,0.15,-85.7922,41.5272
