station,start_time,zr_hours,label,duration,lon,lat
PTK,2020-01-12 02:45,1.25,0,2.58,-83.4201,42.6655
ARB,2020-01-12 04:20,0.5,0,0.42,-83.7397,42.224
YIP,2020-01-12 04:55,0.67,0,0.58,-83.5304,42.2379
DET,2020-01-12 05:04,1.48,0,1.43,-83.0099,42.4092
MTC,2020-01-12 05:09,1.78,0,1.85,-82.8355,42.6083
DTW,2020-01-12 06:20,0.73,0,1.0,-83.33,42.23
TOL,2020-01-12 06:45,0.42,0,24.0,-83.8014,41.5886
