station,start_time,zr_hours,label,duration,lon,lat
CYOW,1989-11-28 04:25,4.77,0,10.58,-75.6692,45.3225
MSS,1989-11-28 05:00,5.42,0,5.0,-74.8456,44.9358
GFL,1989-11-28 05:00,1.17,0,1.0,-73.6103,43.3412
MPV,1989-11-28 06:00,2.53,0,4.0,-72.5623,44.2035
PBG,1989-11-28 06:00,1.0,0,0.0,-73.4624,44.6382
CON,1989-11-28 07:00,1.7,0,1.3,-71.5011,43.1953
LEB,1989-11-28 09:00,1.0,0,0.0,-72.3042,43.6261
HUL,1989-11-28 16:05,0.92,0,0.0,-67.7921,46.1231
