station,start_time,zr_hours,label,duration,lon,lat
POU,1985-11-26 11:00,0.87,0,2.0,-73.8842,41.6266
MSV,1985-11-26 12:00,7.33,1,7.0,-74.795,41.7016
DXR,1985-11-26 12:00,8.0,1,8.0,-73.48,41.37
HFD,1985-11-26 12:00,2.97,0,7.0,-72.6494,41.7367
BDL,1985-11-26 12:29,16.52,1,17.52,-72.6825,41.9381
