station,start_time,zr_hours,label,duration,lon,lat
BTL,1985-11-26 00:00,1.0,0,0.0,-85.2515,42.3073
MBS,1985-11-26 01:00,12.33,1,12.0,-84.08,43.53
IKW,1985-11-26 01:00,13.0,1,12.0,-84.2613,43.6629
LAN,1985-11-26 01:00,7.87,1,9.0,-84.58,42.78
FNT,1985-11-26 02:00,7.0,1,6.0,-83.7494,42.9667
