station,start_time,zr_hours,label,duration,lon,lat
MTN,1986-02-07 02:00,1.0,0,0.0,-76.4138,39.3257
ADW,1986-02-07 03:02,5.47,0,6.63,-76.867,38.8108
DOV,1986-02-07 03:03,6.43,1,5.95,-75.46600000000001,39.1295
DCA,1986-02-07 04:14,2.97,0,4.77,-77.0346,38.8472
DAA,1986-02-07 04:31,2.67,0,6.48,-77.181,38.715
BWI,1986-02-07 05:00,4.87,0,5.0,-76.6683,39.1754
