station,start_time,zr_hours,label,duration,lon,lat
CYSJ,2014-03-20 13:30,0.78,0,0.6,-65.8856,45.3181
CYCX,2014-03-20 14:37,0.78,0,0.38,-66.4367,45.8377
HUL,2014-03-20 15:36,1.87,0,1.67,-67.7921,46.1231
CYZV,2014-03-20 19:44,0.58,0,0.27,-66.2656,50.2233
CYPD,2014-03-20 21:41,1.57,0,1.57,-61.3681,45.6567
CYGR,2014-03-20 23:38,2.2,0,1.37,-61.7781,47.4247
CZBF,2014-03-20 23:43,2.58,0,3.28,-65.7483,47.6292
CYQY,2014-03-21 00:07,3.67,0,2.88,-60.0478,46.1614
CYBC,2014-03-21 01:46,0.72,0,0.67,-68.2044,49.1325
