station,start_time,zr_hours,label,duration,lon,lat
IAB,2014-03-08 15:37,0.65,0,0.85,-97.2673,37.623000000000005
WLD,2014-03-08 16:27,0.28,0,0.0,-97.0369,37.1681
CNU,2014-03-08 17:21,1.47,0,1.52,-95.4842,37.6703
WDG,2014-03-08 18:50,1.0,0,0.0,-97.7911,36.3792
PPF,2014-03-08 18:52,1.6,0,1.52,-95.5042,37.3278
END,2014-03-08 18:55,0.27,0,0.05,-97.9165,36.3392
PNC,2014-03-08 19:12,2.1,0,1.68,-97.1,36.73
BVO,2014-03-08 20:06,1.13,0,1.4,-96.0112,36.7625
