station,start_time,zr_hours,label,duration,lon,lat
NQI,2014-02-07 12:56,1.55,0,1.7,-97.8097,27.5072
RND,2014-02-07 14:28,1.88,0,3.6,-98.28,29.53
SKF,2014-02-07 15:39,2.58,0,3.27,-98.5811,29.3842
BAZ,2014-02-07 15:51,4.42,0,4.28,-98.045,29.709
GGG,2014-02-07 19:45,4.72,0,7.13,-94.7115,32.384
TYR,2014-02-07 21:27,2.7,0,3.43,-95.4024,32.3541
DTN,2014-02-07 21:43,3.35,0,6.52,-93.745,32.5402
CRS,2014-02-07 21:45,1.73,0,1.32,-96.4,32.03
TRL,2014-02-07 22:23,0.38,0,0.28,-96.27,32.71
