station,start_time,zr_hours,label,duration,lon,lat
CYTS,2015-11-26 20:00,0.9,0,0.0,-81.3767,48.5697
CYLD,2015-11-26 21:00,0.42,0,0.0,-83.3467,47.82
CYXR,2015-11-27 01:25,1.87,0,3.25,-79.8489,47.695
CYVO,2015-11-27 06:01,0.23,0,0.2,-77.7867,48.0564
CYSB,2015-11-27 08:46,2.75,0,2.23,-80.8016,46.6261
OSH,2015-11-27 09:07,0.73,0,0.77,-88.557,43.9844
MSN,2015-11-27 10:30,1.55,0,1.38,-89.3453,43.1406
CYZE,2015-11-27 11:22,0.3,0,0.28,-82.5678,45.8853
CYYB,2015-11-27 13:08,0.32,0,0.0,-79.4228,46.3636
