station,start_time,zr_hours,label,duration,lon,lat
TOP,2016-01-06 07:09,0.48,0,0.17,-95.62,39.07
LWC,2016-01-06 07:45,0.23,0,0.12,-95.2115,39.0077
FNB,2016-01-06 09:18,0.25,0,0.0,-95.59200000000001,40.0788
CNU,2016-01-06 10:48,0.37,0,0.07,-95.4842,37.6703
MKC,2016-01-06 12:14,0.13,0,0.0,-94.59299999999999,39.123000000000005
OFK,2016-01-06 13:15,0.2,0,0.0,-97.4351,41.9855
IXD,2016-01-06 13:21,1.53,0,1.53,-94.8903,38.8309
