station,start_time,zr_hours,label,duration,lon,lat
JEF,2010-02-19 08:35,0.47,0,0.3,-92.1561,38.5912
GEZ,2010-02-19 09:37,1.03,0,0.27,-85.8048,39.5831
FNB,2010-02-19 09:44,0.27,0,0.15,-95.59200000000001,40.0788
LXT,2010-02-19 12:59,0.73,0,0.9,-94.3714,38.9597
MCI,2010-02-19 13:10,0.9,0,0.72,-94.7139,39.2976
FLV,2010-02-19 13:53,1.0,0,0.0,-94.9147,39.3683
STJ,2010-02-19 14:53,0.5,0,0.33,-94.9097,39.7719
