station,start_time,zr_hours,label,duration,lon,lat
ROG,2010-01-04 03:34,0.68,0,0.38,-94.10700000000001,36.3724
LLQ,2010-01-04 06:30,0.92,0,1.53,-91.75,33.64
PBF,2010-01-04 07:14,0.77,0,0.65,-91.9347,34.175
TXK,2010-01-04 12:03,1.35,0,0.83,-93.991,33.4537
MLU,2010-01-04 13:17,0.98,0,0.7,-92.0377,32.5109
SHV,2010-01-04 13:35,0.35,0,0.0,-93.8244,32.4472
DTN,2010-01-04 13:53,0.73,0,0.53,-93.745,32.5402
