station,start_time,zr_hours,label,duration,lon,lat
CAK,1995-12-28 04:27,15.55,1,14.55,-81.4422,40.9161
YNG,1995-12-28 05:00,6.12,1,9.0,-80.6739,41.2544
SYR,1995-12-28 05:00,1.28,0,5.0,-76.1063,43.1112
CLE,1995-12-28 05:08,6.93,1,7.87,-81.8528,41.405
BKL,1995-12-28 06:12,1.8,0,0.8,-81.6833,41.5175
