station,start_time,zr_hours,label,duration,lon,lat
MSP,1995-11-30 10:10,1.18,0,0.83,-93.2313,44.8854
EAU,1995-11-30 12:00,2.35,0,2.0,-91.4843,44.8658
DLH,1995-11-30 13:00,0.53,0,1.0,-92.1936,46.8421
VOK,1995-11-30 14:00,0.12,0,0.0,-90.2532,43.9392
MSN,1995-11-30 15:00,1.67,0,1.0,-89.3453,43.1406
ARV,1995-11-30 16:00,2.0,0,3.0,-89.7309,45.9279
AUW,1995-11-30 16:00,0.42,0,0.0,-89.6266,44.9262
GRB,1995-11-30 18:00,0.25,0,0.0,-88.1367,44.4794
HTL,1995-11-30 23:00,0.6,0,0.0,-84.6711,44.3598
