station,start_time,zr_hours,label,duration,lon,lat
FLV,1996-01-26 13:00,1.0,0,0.0,-94.9147,39.3683
OJC,1996-01-26 13:00,1.0,0,0.0,-94.7392,38.85
MCI,1996-01-26 13:00,1.0,0,0.0,-94.7139,39.2976
IRK,1996-01-26 14:00,5.0,0,4.0,-92.5433,40.0972
BRL,1996-01-26 17:00,2.0,0,1.0,-91.1255,40.7729
