station,start_time,zr_hours,label,duration,lon,lat
ORH,1982-12-23 21:00,0.78,0,0.0,-71.8757,42.2673
CON,1982-12-24 00:42,11.95,1,19.7,-71.5011,43.1953
GFL,1982-12-24 03:00,5.0,0,7.0,-73.6103,43.3412
MSS,1982-12-24 04:00,6.0,1,8.0,-74.8456,44.9358
BTV,1982-12-24 06:00,2.0,0,1.0,-73.15,44.47
PSM,1982-12-24 07:00,8.0,1,13.0,-70.8233,43.0779
LEB,1982-12-24 11:00,2.0,0,1.0,-72.3042,43.6261
