station,start_time,zr_hours,label,duration,lon,lat
NHZ,1983-03-07 16:26,0.57,0,0.0,-69.9386,43.8922
PWM,1983-03-07 19:00,13.07,1,18.0,-70.3044,43.6424
PSM,1983-03-07 23:00,4.0,0,3.0,-70.8233,43.0779
EEN,1983-03-07 23:30,0.5,0,0.0,-72.27,42.9
CON,1983-03-08 02:00,4.88,0,35.0,-71.5011,43.1953
LEB,1983-03-08 08:00,3.0,0,19.0,-72.3042,43.6261
