station,start_time,zr_hours,label,duration,lon,lat
DSM,2022-01-14 12:50,0.67,0,9.58,-93.6531,41.534
TQE,2022-01-14 14:20,0.42,0,0.33,-96.1779,41.7635
OFF,2022-01-14 15:28,1.23,0,0.47,-95.9125,41.1183
OMA,2022-01-14 15:50,1.58,0,1.5,-95.8992,41.3103
ICR,2022-01-14 20:40,0.35,0,0.33,-99.8422,43.3903
FRI,2022-01-14 23:56,2.42,0,15.88,-96.7645,39.0526
CFV,2022-01-15 09:08,0.2,0,0.12,-95.5719,37.094
