station,start_time,zr_hours,label,duration,lon,lat
OWB,1981-12-21 14:10,1.75,0,0.92,-87.1668,37.7388
SDF,1981-12-21 14:35,3.42,0,2.42,-85.736,38.1744
LOU,1981-12-21 15:00,3.0,0,2.0,-85.6637,38.228
IND,1981-12-21 15:00,0.52,0,1.0,-86.3048,39.7084
LEX,1981-12-21 16:19,7.08,1,7.68,-84.6058,38.0408
