station,start_time,zr_hours,label,duration,lon,lat
ILG,1982-01-23 11:14,1.38,0,2.77,-75.6008,39.6728
PHL,1982-01-23 12:37,1.83,0,1.38,-75.2311,39.8683
TTN,1982-01-23 13:00,1.0,0,0.0,-74.8159,40.2768
MDT,1982-01-23 13:00,4.0,0,4.0,-76.7633,40.1936
WRI,1982-01-23 13:01,0.18,0,0.0,-74.5917,40.0156
ABE,1982-01-23 13:14,7.77,1,6.77,-75.4492,40.6508
RDG,1982-01-23 14:00,6.0,1,5.0,-75.9652,40.3785
AVP,1982-01-23 14:32,2.63,0,2.47,-75.7227,41.3335
