station,start_time,zr_hours,label,duration,lon,lat
HGR,2018-11-24 13:45,6.9,1,7.17,-77.7297,39.7078
CYQA,2018-11-24 17:22,23.37,1,67.68,-79.3033,44.9747
CYXR,2018-11-24 21:56,12.17,1,25.28,-79.8489,47.695
CYMX,2018-11-25 00:12,11.8,1,12.8,-74.0387,45.6795
CYUL,2018-11-25 01:18,6.18,1,8.7,-73.7414,45.4683
CYRQ,2018-11-25 08:45,6.18,1,18.92,-72.6794,46.3528
