station,start_time,zr_hours,label,duration,lon,lat
MPO,2009-12-09 11:15,3.45,0,3.23,-75.3794,41.1389
ELZ,2009-12-09 12:10,0.68,0,0.28,-77.99,42.11
ITH,2009-12-09 12:34,0.95,0,0.37,-76.4584,42.49100000000001
BGM,2009-12-09 12:34,1.4,0,1.32,-75.9797,42.2086
MGJ,2009-12-09 12:44,0.98,0,0.9,-74.265,41.5092
SYR,2009-12-09 13:43,0.43,0,0.3,-76.1063,43.1112
FZY,2009-12-09 14:02,1.17,0,8.87,-76.3831,43.3504
GTB,2009-12-09 14:34,0.33,0,0.1,-75.7195,44.0556
