station,start_time,zr_hours,label,duration,lon,lat
AZO,2009-12-13 03:36,5.22,0,6.75,-85.5519,42.2347
GRR,2009-12-13 03:53,2.78,0,3.0,-85.52,42.88
BTL,2009-12-13 03:53,4.42,0,4.0,-85.2515,42.3073
LAN,2009-12-13 04:00,6.08,1,5.88,-84.58,42.78
JXN,2009-12-13 05:04,2.05,0,4.22,-84.4594,42.2598
FNT,2009-12-13 05:20,2.77,0,4.55,-83.7494,42.9667
MBS,2009-12-13 06:18,2.93,0,5.58,-84.08,43.53
IKW,2009-12-13 06:53,2.0,0,5.0,-84.2613,43.6629
