station,start_time,zr_hours,label,duration,lon,lat
OSU,2009-12-13 09:35,1.37,0,1.3,-83.08,40.08
LHQ,2009-12-13 09:37,1.92,0,1.27,-82.6571,39.7556
ARB,2009-12-13 10:10,1.4,0,1.17,-83.7397,42.224
YIP,2009-12-13 10:26,1.32,0,1.58,-83.5304,42.2379
MFD,2009-12-13 10:29,1.08,0,0.38,-82.52,40.82
CMH,2009-12-13 10:32,0.43,0,0.32,-82.8808,39.9914
DTW,2009-12-13 10:41,0.27,0,0.2,-83.33,42.23
