station,start_time,zr_hours,label,duration,lon,lat
CYSJ,2020-02-27 14:34,5.03,0,6.57,-65.8856,45.3181
CYHZ,2020-02-27 16:00,4.0,0,3.32,-63.5086,44.8808
CYAW,2020-02-27 16:00,17.0,1,4.0,-63.4994,44.6397
CYYG,2020-02-27 20:15,4.03,0,3.75,-63.1286,46.2886
CYPD,2020-02-27 21:42,0.33,0,0.1,-61.3681,45.6567
CYQM,2020-02-27 22:31,0.48,0,0.0,-64.6878,46.1039
CYQY,2020-02-28 00:20,5.02,0,4.67,-60.0478,46.1614
FVE,2020-02-28 02:10,0.58,0,0.5,-68.3127,47.2855
CZBF,2020-02-28 07:48,0.5,0,0.37,-65.7483,47.6292
