station,start_time,zr_hours,label,duration,lon,lat
OFF,2018-11-29 19:17,0.57,0,0.17,-95.9125,41.1183
DSM,2018-11-29 22:54,2.93,0,3.18,-93.6531,41.534
OTM,2018-11-30 02:35,0.97,0,1.67,-92.4446,41.1008
CID,2018-11-30 02:35,0.28,0,0.25,-91.7246,41.8829
RFD,2018-11-30 03:45,2.75,0,2.75,-89.09299999999999,42.1927
ORD,2018-11-30 05:15,2.0,0,1.92,-87.9319,41.9875
PWK,2018-11-30 06:10,0.58,0,1.0,-87.9047,42.1208
