station,start_time,zr_hours,label,duration,lon,lat
CYBC,2019-01-09 05:15,0.22,0,0.18,-68.2044,49.1325
CZBF,2019-01-09 07:30,0.23,0,0.22,-65.7483,47.6292
HUL,2019-01-09 10:50,0.58,0,2.75,-67.7921,46.1231
CYFC,2019-01-09 13:24,2.53,0,9.87,-66.5278,45.8722
CYCX,2019-01-09 17:11,1.55,0,4.47,-66.4367,45.8377
CYQM,2019-01-09 17:18,0.58,0,0.23,-64.6878,46.1039
CYQY,2019-01-09 21:20,1.27,0,0.98,-60.0478,46.1614
CYGR,2019-01-09 21:35,0.75,0,3.58,-61.7781,47.4247
CYNA,2019-01-10 07:41,1.68,0,19.55,-61.7889,50.19
