station,start_time,zr_hours,label,duration,lon,lat
BFD,1985-02-02 03:00,3.0,0,2.0,-78.6401,41.8031
TEB,1985-02-02 06:00,1.0,0,0.0,-74.0562,40.859
MTN,1985-02-02 13:00,1.33,0,12.0,-76.4138,39.3257
IAD,1985-02-02 13:08,6.42,1,10.87,-77.4473,38.9348
BWI,1985-02-02 14:00,0.42,0,0.0,-76.6683,39.1754
ISP,1985-02-02 19:00,7.0,1,6.0,-73.1017,40.7939
HYA,1985-02-02 23:00,1.0,0,0.0,-70.28,41.67
