station,start_time,zr_hours,label,duration,lon,lat
LYH,1999-02-01 10:54,8.37,1,8.83,-79.2067,37.3208
BAF,1999-02-02 06:53,6.0,1,8.0,-72.7161,42.1578
GFL,1999-02-02 08:47,8.0,1,8.0,-73.6103,43.3412
ORH,1999-02-02 08:54,7.0,1,11.0,-71.8757,42.2673
AFN,1999-02-02 10:12,6.32,1,6.48,-72.003,42.8051
