station,start_time,zr_hours,label,duration,lon,lat
PTK,2003-12-17 03:28,0.52,0,0.42,-83.4201,42.6655
JXN,2003-12-17 05:13,0.43,0,0.0,-84.4594,42.2598
ADG,2003-12-17 05:19,0.4,0,0.0,-84.0773,41.8677
CSV,2003-12-17 05:42,1.02,0,0.18,-85.085,35.9513
DTW,2003-12-17 06:33,0.97,0,0.35,-83.33,42.23
DET,2003-12-17 07:53,0.57,0,0.18,-83.0099,42.4092
HTS,2003-12-17 08:38,0.48,0,0.22,-82.555,38.365
