station,start_time,zr_hours,label,duration,lon,lat
CUT,2003-11-03 00:53,0.25,0,0.0,-103.6114,43.7331
BBW,2003-11-03 08:01,5.23,0,6.7,-99.6385,41.4366
SPW,2003-11-03 09:53,6.0,1,10.0,-95.2101,43.1682
EST,2003-11-03 10:52,11.0,1,14.0,-94.7476,43.4008
MCW,2003-11-03 10:53,4.0,0,17.0,-93.3261,43.1544
RST,2003-11-03 12:32,1.53,0,3.37,-92.4916,43.9041
FSD,2003-11-03 14:01,4.3,0,9.68,-96.7536,43.5769
ABR,2003-11-03 19:43,2.85,0,2.38,-98.42,45.45
MBG,2003-11-04 00:36,2.98,0,2.9,-100.4078,45.5464
