station,start_time,zr_hours,label,duration,lon,lat
ADG,2004-02-24 02:38,4.6,0,8.25,-84.0773,41.8677
LAN,2004-02-24 03:15,1.98,0,1.78,-84.58,42.78
ARB,2004-02-24 05:26,0.98,0,0.45,-83.7397,42.224
YIP,2004-02-24 05:53,0.78,0,0.0,-83.5304,42.2379
DFI,2004-02-24 10:53,1.17,0,1.28,-84.4288,41.3375
MFD,2004-02-24 12:27,0.68,0,0.53,-82.52,40.82
MRB,2004-02-24 12:53,0.48,0,0.37,-77.9847,39.4019
