station,start_time,zr_hours,label,duration,lon,lat
JMS,2004-03-05 05:08,1.37,0,0.8,-98.68,46.93
OSH,2004-03-05 05:13,10.13,1,13.48,-88.557,43.9844
RST,2004-03-05 05:34,3.18,0,5.03,-92.4916,43.9041
FCM,2004-03-05 06:03,0.48,0,0.35,-93.4607,44.8261
ISW,2004-03-05 07:54,4.52,0,4.4,-89.8369,44.3592
GLR,2004-03-05 09:53,4.53,0,4.1,-84.7036,45.0135
MFI,2004-03-05 10:06,1.82,0,2.15,-90.1893,44.6369
PLN,2004-03-05 12:40,1.32,0,2.5,-84.7967,45.5709
