station,start_time,zr_hours,label,duration,lon,lat
DHT,2018-11-18 00:15,0.37,0,2.75,-102.5473,36.0226
CNK,2018-11-18 00:40,2.23,0,2.58,-97.65,39.55
BGD,2018-11-18 02:20,0.12,0,0.08,-101.3937,35.7009
SLN,2018-11-18 05:13,0.73,0,0.7,-97.6522,38.791
IAB,2018-11-18 06:02,0.3,0,0.32,-97.2673,37.623000000000005
PWA,2018-11-18 11:00,0.83,0,0.92,-97.6471,35.5342
JLN,2018-11-18 16:05,0.83,0,0.8,-94.4952,37.1522
