station,start_time,zr_hours,label,duration,lon,lat
CYAY,2019-01-24 19:12,3.78,0,15.4,-56.0856,51.3906
CYDF,2019-01-24 22:36,4.4,0,4.4,-57.3975,49.2108
CYYT,2019-01-24 23:49,2.6,0,2.18,-52.7428,47.6222
CYQX,2019-01-25 00:00,4.1,0,4.0,-54.5757,48.9457
CYBX,2019-01-25 04:14,4.77,0,3.77,-57.1853,51.4436
CYMH,2019-01-25 08:09,1.75,0,1.77,-55.8325,52.3036
CYCA,2019-01-25 11:58,0.15,0,0.13,-57.0419,53.6828
