station,start_time,zr_hours,label,duration,lon,lat
RDR,2004-12-11 18:00,0.35,0,4.98,-97.4012,47.9611
GFK,2004-12-11 18:33,0.33,0,0.0,-97.1761,47.9492
BDE,2004-12-11 23:53,2.67,0,2.0,-94.6122,48.7284
INL,2004-12-12 01:17,2.3,0,11.63,-93.3956,48.5595
DLH,2004-12-12 04:15,1.67,0,1.82,-92.1936,46.8421
HYR,2004-12-12 05:25,1.03,0,1.47,-91.4442,46.0253
ASX,2004-12-12 07:00,0.98,0,4.1,-90.9189,46.5487
