station,start_time,zr_hours,label,duration,lon,lat
UGN,2005-03-25 13:59,0.47,0,0.35,-87.8679,42.4222
DPA,2005-03-25 17:10,0.23,0,0.0,-88.2486,41.9078
DFI,2005-03-25 17:11,0.77,0,0.7,-84.4288,41.3375
VPZ,2005-03-25 17:45,0.13,0,0.0,-87.0071,41.45399999999999
ARR,2005-03-25 18:46,0.75,0,3.3,-88.48,41.77
