station,start_time,zr_hours,label,duration,lon,lat
MVL,2011-12-21 18:11,1.2,0,0.98,-72.61399999999999,44.5346
CYMX,2011-12-21 18:15,6.73,1,9.75,-74.0387,45.6795
CON,2011-12-21 18:18,1.47,0,1.2,-71.5011,43.1953
CYUL,2011-12-21 18:29,8.4,1,11.52,-73.7414,45.4683
HIE,2011-12-21 18:44,2.27,0,2.13,-71.5522,44.3659
BML,2011-12-21 18:44,3.13,0,3.4,-71.1786,44.5761
CYHU,2011-12-21 19:07,4.18,0,12.13,-73.4167,45.5167
MPV,2011-12-21 19:12,4.75,0,4.78,-72.5623,44.2035
AUG,2011-12-21 19:40,3.45,0,3.22,-69.8,44.32
