station,start_time,zr_hours,label,duration,lon,lat
HIE,2012-01-17 19:36,2.78,0,3.5,-71.5522,44.3659
MPV,2012-01-17 20:00,2.8,0,2.33,-72.5623,44.2035
MVL,2012-01-17 20:18,1.3,0,3.6,-72.61399999999999,44.5346
BML,2012-01-17 20:43,1.52,0,7.15,-71.1786,44.5761
IZG,2012-01-17 20:54,2.83,0,3.42,-70.9479,43.9911
AUG,2012-01-17 21:41,4.57,0,4.68,-69.8,44.32
