station,start_time,zr_hours,label,duration,lon,lat
TIK,2012-02-13 10:22,0.83,0,2.62,-97.3866,35.4147
CSM,2012-02-13 11:08,0.78,0,3.75,-99.2005,35.3398
PWA,2012-02-13 11:21,0.9,0,0.53,-97.6471,35.5342
LAW,2012-02-13 11:40,1.28,0,1.22,-98.4166,34.5677
OKC,2012-02-13 11:52,0.57,0,0.0,-97.6006,35.3889
FSI,2012-02-13 11:55,1.6,0,21.23,-98.4033,34.6449
