station,start_time,zr_hours,label,duration,lon,lat
OFP,2012-01-21 02:32,4.7,0,10.25,-77.4366,37.7089
LYH,2012-01-21 03:24,5.93,0,10.5,-79.2067,37.3208
RIC,2012-01-21 03:42,3.2,0,2.57,-77.3234,37.5115
CHO,2012-01-21 03:53,7.65,1,9.65,-78.4529,38.1386
NUI,2012-01-21 04:35,1.85,0,2.3,-76.4285,38.146
