station,start_time,zr_hours,label,duration,lon,lat
RDR,1985-12-21 22:00,5.0,0,38.0,-97.4012,47.9611
GFK,1985-12-21 22:00,0.2,0,0.0,-97.1761,47.9492
FAR,1985-12-21 23:00,1.0,0,0.0,-96.8111,46.9253
TVF,1985-12-21 23:00,1.0,0,0.0,-96.185,48.0657
FFM,1985-12-22 00:00,13.0,1,0.0,-96.1567,46.2844
AXN,1985-12-22 00:08,0.87,0,0.0,-95.3947,45.8663
MSP,1985-12-22 02:20,0.97,0,0.67,-93.2313,44.8854
DLH,1985-12-22 03:00,1.0,0,0.0,-92.1936,46.8421
