station,start_time,zr_hours,label,duration,lon,lat
PHL,1985-12-23 10:42,0.75,0,0.3,-75.2311,39.8683
WRI,1985-12-23 12:00,1.5,0,1.0,-74.5917,40.0156
ART,1985-12-23 12:00,0.15,0,0.0,-76.0262,43.9888
NEL,1985-12-23 13:00,0.25,0,0.0,-74.3536,40.0334
PSB,1985-12-23 13:10,0.83,0,0.0,-78.0873,40.8844
UNV,1985-12-23 13:10,0.83,0,0.0,-77.85,40.85
LBE,1985-12-23 15:18,1.7,0,0.0,-79.4048,40.2759
