station,start_time,zr_hours,label,duration,lon,lat
CAK,2015-02-11 23:18,1.15,0,3.55,-81.4422,40.9161
BJJ,2015-02-11 23:56,1.95,0,3.33,-81.8882,40.8748
AKR,2015-02-12 01:04,0.9,0,2.75,-81.4669,41.0375
HZY,2015-02-12 01:34,1.43,0,2.97,-80.6955,41.778
AOH,2015-02-12 01:40,0.52,0,0.22,-84.0267,40.7069
LPR,2015-02-12 01:53,0.17,0,0.0,-82.1794,41.3461
MNN,2015-02-12 02:32,0.32,0,0.0,-83.0635,40.6162
