station,start_time,zr_hours,label,duration,lon,lat
TYS,1982-01-19 00:00,12.0,1,11.0,-83.9858,35.8181
ROA,1982-01-19 07:00,12.0,1,11.0,-79.9737,37.3172
HTS,1982-01-19 07:00,7.47,1,7.53,-82.555,38.365
CRW,1982-01-19 07:00,7.13,1,7.07,-81.59,38.3794
RIC,1982-01-19 10:16,6.08,1,9.9,-77.3234,37.5115
FCI,1982-01-19 10:16,6.08,1,9.9,-77.5248,37.4064
