station,start_time,zr_hours,label,duration,lon,lat
CYUL,2011-02-14 12:35,2.68,0,4.92,-73.7414,45.4683
CYND,2011-02-14 14:10,1.0,0,0.83,-75.5636,45.5217
CYHU,2011-02-14 17:59,0.22,0,0.13,-73.4167,45.5167
CYFC,2011-02-14 21:23,0.03,0,0.0,-66.5278,45.8722
ELM,2011-02-14 23:46,0.47,0,0.12,-76.8994,42.1571
CYQM,2011-02-14 23:48,0.27,0,0.2,-64.6878,46.1039
CYPD,2011-02-15 00:03,5.62,0,13.02,-61.3681,45.6567
CYYG,2011-02-15 00:49,2.07,0,1.18,-63.1286,46.2886
