station,start_time,zr_hours,label,duration,lon,lat
GLR,2011-03-21 01:46,1.72,0,2.12,-84.7036,45.0135
CYZE,2011-03-21 03:45,0.17,0,2.77,-82.5678,45.8853
ELZ,2011-03-21 06:26,2.2,0,1.5,-77.99,42.11
CYAM,2011-03-21 10:00,1.0,0,0.0,-84.5094,46.4833
CYSB,2011-03-21 11:12,0.8,0,0.0,-80.8016,46.6261
ANJ,2011-03-21 13:07,0.48,0,0.0,-84.3684,46.4792
CYYB,2011-03-21 15:00,0.37,0,0.17,-79.4228,46.3636
CYQA,2011-03-21 16:30,1.87,0,10.63,-79.3033,44.9747
