station,start_time,zr_hours,label,duration,lon,lat
AZO,2008-02-06 08:53,6.97,1,10.0,-85.5519,42.2347
BUF,2008-02-06 12:53,7.02,1,14.02,-78.7358,42.9408
FZY,2008-02-06 12:54,8.0,1,17.0,-76.3831,43.3504
IAG,2008-02-06 13:53,8.0,1,14.0,-78.9462,43.1073
PEO,2008-02-06 15:53,6.0,1,10.0,-77.0529,42.6371
ALB,2008-02-06 23:51,6.0,1,6.0,-73.8036,42.7576
