station,start_time,zr_hours,label,duration,lon,lat
AOH,2017-03-17 16:05,0.93,0,0.92,-84.0267,40.7069
OSU,2017-03-17 17:00,0.42,0,0.53,-83.08,40.08
MNN,2017-03-17 17:35,0.42,0,0.58,-83.0635,40.6162
LHQ,2017-03-17 17:40,1.22,0,1.17,-82.6571,39.7556
VTA,2017-03-17 18:40,0.67,0,0.58,-82.4618,40.0247
ADG,2017-03-17 18:45,1.07,0,2.43,-84.0773,41.8677
ZZV,2017-03-17 19:35,0.37,0,0.42,-81.8921,39.9444
