station,start_time,zr_hours,label,duration,lon,lat
SPW,2014-12-15 23:41,1.13,0,1.2,-95.2101,43.1682
DSM,2014-12-16 06:38,1.4,0,1.57,-93.6531,41.534
CMX,2014-12-16 07:20,0.55,0,0.1,-88.4891,47.1684
RST,2014-12-16 08:05,0.98,0,0.82,-92.4916,43.9041
OTM,2014-12-16 09:53,0.53,0,0.33,-92.4446,41.1008
RHI,2014-12-16 10:09,0.2,0,0.0,-89.4675,45.6312
UIN,2014-12-16 13:54,0.15,0,0.0,-91.1946,39.9428
