station,start_time,zr_hours,label,duration,lon,lat
ALO,1980-12-22 22:00,2.0,0,22.0,-92.4013,42.5544
CID,1980-12-23 00:00,4.67,0,24.0,-91.7246,41.8829
RCA,1980-12-23 07:00,2.0,0,1.0,-103.1036,44.1451
LSE,1980-12-23 09:00,1.0,0,0.0,-91.25,43.88
RAP,1980-12-23 09:00,2.28,0,3.0,-103.0574,44.0453
PIR,1980-12-23 10:00,1.0,0,0.0,-100.286,44.3827
FSD,1980-12-23 10:13,2.78,0,1.78,-96.7536,43.5769
YKN,1980-12-23 13:00,3.0,0,2.0,-97.3859,42.9167
OFK,1980-12-23 13:00,0.43,0,0.0,-97.4351,41.9855
