station,start_time,zr_hours,label,duration,lon,lat
INT,2002-12-05 00:54,9.0,1,10.0,-80.222,36.1337
GSO,2002-12-05 01:54,11.0,1,10.0,-79.9436,36.0975
LBT,2002-12-05 01:54,2.0,0,1.0,-79.06,34.61
BLF,2002-12-05 02:10,11.53,1,12.93,-81.2077,37.2958
DAN,2002-12-05 02:11,6.02,1,13.53,-79.3361,36.5729
