station,start_time,zr_hours,label,duration,lon,lat
MWN,1990-12-23 20:00,15.0,1,18.0,-71.3035,44.2708
PBG,1990-12-24 07:00,2.87,0,4.0,-73.4624,44.6382
ELM,1990-12-24 09:00,1.0,0,0.0,-76.8994,42.1571
BGM,1990-12-24 10:00,1.0,0,0.0,-75.9797,42.2086
HUL,1990-12-24 11:00,0.67,0,7.0,-67.7921,46.1231
