station,start_time,zr_hours,label,duration,lon,lat
TUP,1990-12-23 16:00,4.0,0,3.0,-88.7711,34.2608
BPT,1990-12-23 17:00,0.35,0,0.0,-94.0261,29.9521
JAN,1990-12-23 19:00,1.0,0,0.0,-90.08,32.32
MSL,1990-12-23 20:00,0.25,0,0.0,-87.5996,34.7438
BNA,1990-12-23 22:05,0.1,0,0.0,-86.6892,36.1189
MRC,1990-12-23 22:05,0.1,0,0.0,-87.1791,35.5544
CMH,1990-12-23 23:00,1.0,0,0.23,-82.8808,39.9914
