station,start_time,zr_hours,label,duration,lon,lat
WAL,1984-01-11 12:00,1.0,0,0.0,-75.4631,37.9406
NTU,1984-01-11 13:20,0.67,0,0.0,-76.0335,36.8207
EWN,1984-01-11 18:00,2.78,0,9.0,-77.0472,35.0675
NCA,1984-01-11 22:00,4.58,0,5.0,-77.4397,34.7084
ILM,1984-01-11 22:00,6.43,1,6.0,-77.9,34.27
OAJ,1984-01-12 00:00,3.0,0,2.0,-77.6121,34.8292
NKT,1984-01-12 04:00,1.47,0,1.0,-76.88,34.9
