station,start_time,zr_hours,label,duration,lon,lat
ORH,1984-03-05 22:00,1.22,0,1.0,-71.8757,42.2673
HYA,1984-03-05 22:00,1.0,0,0.0,-70.28,41.67
AUG,1984-03-06 09:00,3.1,0,3.0,-69.8,44.32
CON,1984-03-06 10:00,2.42,0,2.0,-71.5011,43.1953
NHZ,1984-03-06 10:00,2.57,0,2.0,-69.9386,43.8922
PWM,1984-03-06 10:00,3.25,0,3.0,-70.3044,43.6424
PSM,1984-03-06 11:00,1.0,0,0.0,-70.8233,43.0779
