station,start_time,zr_hours,label,duration,lon,lat
DAY,1984-03-18 00:38,1.97,0,1.37,-84.2186,39.9061
FDY,1984-03-18 03:00,1.0,0,0.0,-83.6686,41.0136
SBN,1984-03-18 04:00,0.15,0,0.0,-86.3164,41.7072
CAK,1984-03-18 06:06,1.08,0,0.9,-81.4422,40.9161
JST,1984-03-18 13:00,1.0,0,0.17,-78.8339,40.3161
