station,start_time,zr_hours,label,duration,lon,lat
CYXU,2007-03-01 14:00,7.32,1,12.0,-81.1539,43.0356
CYHM,2007-03-01 20:36,12.82,1,12.82,-79.934,43.172
CYKF,2007-03-01 22:54,6.33,1,11.03,-80.3857,43.4616
MPO,2007-03-02 02:02,7.62,1,7.62,-75.3794,41.1389
ALB,2007-03-02 04:51,8.0,1,8.0,-73.8036,42.7576
CYTR,2007-03-02 05:46,8.05,1,8.68,-77.5281,44.1189
ORH,2007-03-02 07:54,6.0,1,6.0,-71.8757,42.2673
