station,start_time,zr_hours,label,duration,lon,lat
CYQB,2011-03-10 22:00,6.28,1,7.0,-71.3933,46.7911
CYOY,2011-03-10 22:20,8.82,1,19.95,-71.5033,46.9003
CYBG,2011-03-10 23:33,13.45,1,13.45,-70.9869,48.3339
CYRJ,2011-03-11 02:35,10.75,1,11.42,-72.2656,48.52
MWN,2011-03-11 07:52,6.08,1,16.98,-71.3035,44.2708
