station,start_time,zr_hours,label,duration,lon,lat
HON,1991-11-05 08:20,4.07,0,3.75,-98.2286,44.3852
OFK,1991-11-05 09:00,1.0,0,0.0,-97.4351,41.9855
FSD,1991-11-05 10:09,3.23,0,2.85,-96.7536,43.5769
EST,1991-11-05 12:00,3.0,0,2.0,-94.7476,43.4008
OFF,1991-11-05 12:00,1.35,0,1.0,-95.9125,41.1183
LNK,1991-11-05 12:00,1.2,0,1.0,-96.7647,40.8478
CID,1991-11-05 15:00,0.23,0,3.0,-91.7246,41.8829
