station,start_time,zr_hours,label,duration,lon,lat
SUX,1992-02-10 09:00,0.08,0,0.0,-96.3795,42.3917
BRL,1992-02-10 11:00,2.68,0,6.0,-91.1255,40.7729
SGF,1992-02-10 13:00,4.0,0,3.0,-93.3897,37.2397
HRO,1992-02-10 13:16,5.03,0,4.73,-93.1547,36.2615
UIN,1992-02-10 18:00,0.25,0,0.0,-91.1946,39.9428
PIA,1992-02-10 19:00,0.68,0,0.0,-89.6839,40.6675
