station,start_time,zr_hours,label,duration,lon,lat
ACT,2013-01-15 11:30,0.75,0,2.35,-97.2283,31.618000000000002
UTS,2013-01-15 12:14,4.55,0,5.65,-95.5872,30.7469
CRS,2013-01-15 12:53,1.93,0,2.12,-96.4,32.03
TRL,2013-01-15 13:09,1.3,0,2.97,-96.27,32.71
GKY,2013-01-15 13:26,0.6,0,0.45,-97.0943,32.6639
NFW,2013-01-15 13:35,0.57,0,0.28,-97.4365,32.781
HLR,2013-01-15 14:22,1.03,0,0.57,-97.7145,31.1387
