station,start_time,zr_hours,label,duration,lon,lat
MSS,2014-12-11 23:39,2.15,0,8.23,-74.8456,44.9358
RME,2014-12-12 02:37,0.55,0,0.27,-75.3953,43.2239
BFD,2014-12-12 10:12,2.68,0,0.0,-78.6401,41.8031
IAG,2014-12-12 10:25,0.5,0,1.23,-78.9462,43.1073
FIG,2014-12-12 10:54,0.87,0,4.22,-78.4117,41.0467
FZY,2014-12-12 18:18,0.43,0,0.0,-76.3831,43.3504
MPO,2014-12-13 00:53,0.18,0,0.0,-75.3794,41.1389
BGM,2014-12-13 02:51,0.42,0,0.13,-75.9797,42.2086
