station,start_time,zr_hours,label,duration,lon,lat
CYQY,2015-02-03 05:10,1.02,0,0.83,-60.0478,46.1614
CYYT,2015-02-03 08:47,2.57,0,2.22,-52.7428,47.6222
CYJT,2015-02-03 10:09,1.45,0,1.12,-58.5639,48.5453
CYPD,2015-02-03 10:40,0.58,0,1.23,-61.3681,45.6567
CYQX,2015-02-03 11:30,0.72,0,0.5,-54.5757,48.9457
CYDF,2015-02-03 13:47,1.88,0,1.22,-57.3975,49.2108
CYAY,2015-02-03 19:26,0.3,0,0.2,-56.0856,51.3906
