station,start_time,zr_hours,label,duration,lon,lat
FTK,1987-02-16 04:46,10.35,1,14.23,-85.9721,37.9071
EVV,1987-02-16 05:00,4.67,0,7.0,-87.5205,38.0441
SDF,1987-02-16 05:00,10.02,1,10.0,-85.736,38.1744
LOU,1987-02-16 05:38,8.28,1,8.45,-85.6637,38.228
LEX,1987-02-16 06:19,11.87,1,11.68,-84.6058,38.0408
