station,start_time,zr_hours,label,duration,lon,lat
MLT,2010-01-25 06:21,6.15,1,6.2,-68.6856,45.6478
CYMT,2010-01-25 08:00,7.0,1,7.0,-74.5281,49.7719
CYQB,2010-01-25 08:00,6.0,1,6.0,-71.3933,46.7911
CYSJ,2010-01-25 08:29,6.3,1,7.52,-65.8856,45.3181
CYRJ,2010-01-25 10:00,6.0,1,6.0,-72.2656,48.52
CYBC,2010-01-25 13:08,8.1,1,10.07,-68.2044,49.1325
CYWK,2010-01-25 18:32,9.47,1,12.47,-66.8742,52.9272
