station,start_time,zr_hours,label,duration,lon,lat
PWK,2010-01-21 02:52,10.0,1,10.0,-87.9047,42.1208
FWA,2010-01-21 05:27,7.15,1,27.45,-85.1871,40.978
BKW,2010-01-21 16:38,7.47,1,20.22,-81.1242,37.7873
ROA,2010-01-21 17:42,6.7,1,8.2,-79.9737,37.3172
LYH,2010-01-21 19:37,15.28,1,15.28,-79.2067,37.3208
