station,start_time,zr_hours,label,duration,lon,lat
HUT,2013-02-21 07:52,1.0,0,0.7,-97.8606,38.0655
WLD,2013-02-21 08:08,0.28,0,1.63,-97.0369,37.1681
IAB,2013-02-21 08:42,0.85,0,12.03,-97.2673,37.623000000000005
CFV,2013-02-21 08:52,7.05,1,8.0,-95.5719,37.094
PPF,2013-02-21 09:15,5.83,0,7.62,-95.5042,37.3278
RVS,2013-02-21 10:37,1.07,0,0.43,-95.9846,36.0396
CNU,2013-02-21 11:11,7.8,1,10.8,-95.4842,37.6703
