station,start_time,zr_hours,label,duration,lon,lat
MLC,1987-02-17 02:00,2.35,0,3.0,-95.7831,34.8822
TUL,1987-02-17 02:09,1.17,0,0.85,-95.8881,36.1984
FSM,1987-02-17 04:22,0.97,0,0.63,-94.3674,35.3366
JBR,1987-02-17 05:00,2.0,0,6.0,-90.6464,35.8317
DYR,1987-02-17 12:00,2.0,0,1.0,-89.4066,35.998000000000005
UCY,1987-02-17 12:00,2.0,0,1.0,-88.9857,36.3797
MEM,1987-02-17 13:00,2.77,0,9.0,-89.985,35.0611
NQA,1987-02-17 13:00,0.65,0,0.0,-89.8703,35.3567
MKL,1987-02-17 14:15,0.75,0,0.0,-88.9167,35.5931
