station,start_time,zr_hours,label,duration,lon,lat
IAD,1987-01-02 03:00,1.55,0,1.0,-77.4473,38.9348
BDL,1987-01-02 07:37,3.38,0,2.38,-72.6825,41.9381
POU,1987-01-02 09:00,5.0,0,4.0,-73.8842,41.6266
SWF,1987-01-02 12:00,2.0,0,3.0,-74.1048,41.5041
MSV,1987-01-02 14:00,1.0,0,0.0,-74.795,41.7016
BED,1987-01-02 16:00,1.0,0,0.0,-71.289,42.47
