station,start_time,zr_hours,label,duration,lon,lat
LSF,1983-01-20 11:00,9.2,1,9.65,-84.9913,32.3373
GTR,1983-01-20 12:00,5.0,0,3.0,-88.5914,33.4503
CBM,1983-01-20 12:00,2.0,0,1.0,-88.4438,33.6438
MXF,1983-01-20 12:00,3.0,0,2.0,-86.3658,32.3829
BHM,1983-01-20 12:00,2.0,0,1.0,-86.7449,33.5655
ANB,1983-01-20 12:15,7.1,1,17.75,-85.8581,33.5882
CSG,1983-01-20 13:00,18.57,1,21.0,-84.9422,32.5161
