station,start_time,zr_hours,label,duration,lon,lat
CYQB,2016-02-25 00:19,12.52,1,23.28,-71.3933,46.7911
CZBF,2016-02-25 01:07,8.22,1,13.88,-65.7483,47.6292
FVE,2016-02-25 03:08,7.88,1,7.88,-68.3127,47.2855
CYYY,2016-02-25 08:29,12.33,1,18.52,-68.2081,48.6086
CYGP,2016-02-25 08:48,7.2,1,7.2,-64.4781,48.7769
CYYR,2016-02-25 22:41,12.42,1,12.88,-60.4258,53.3192
