station,start_time,zr_hours,label,duration,lon,lat
ALB,1994-12-10 00:00,0.3,0,0.0,-73.8036,42.7576
SCH,1994-12-10 00:00,1.0,0,0.0,-73.93,42.85
BDL,1994-12-10 01:09,0.85,0,0.0,-72.6825,41.9381
CEF,1994-12-10 02:00,0.27,0,0.0,-72.5348,42.193999999999996
BAF,1994-12-10 02:00,1.0,0,0.0,-72.7161,42.1578
