station,start_time,zr_hours,label,duration,lon,lat
BGM,1995-01-12 02:00,5.42,0,6.0,-75.9797,42.2086
EWR,1995-01-12 02:00,4.0,0,3.0,-74.1693,40.6827
TEB,1995-01-12 02:00,5.0,0,4.0,-74.0562,40.859
IPT,1995-01-12 02:00,1.0,0,0.0,-76.9217,41.2433
ABE,1995-01-12 02:22,2.77,0,2.63,-75.4492,40.6508
