station,start_time,zr_hours,label,duration,lon,lat
UCA,1995-02-15 19:00,5.17,0,5.0,-75.3839,43.1451
GTB,1995-02-15 19:00,4.83,0,5.0,-75.7195,44.0556
ART,1995-02-15 19:00,2.67,0,5.0,-76.0262,43.9888
RME,1995-02-15 19:00,5.37,0,5.0,-75.3953,43.2239
OGS,1995-02-15 20:00,6.0,1,6.0,-75.4655,44.6819
CYOW,1995-02-15 20:43,2.08,0,3.13,-75.6692,45.3225
