station,start_time,zr_hours,label,duration,lon,lat
LYH,1995-02-15 10:06,4.32,0,3.9,-79.2067,37.3208
BLF,1995-02-15 10:25,2.58,0,1.58,-81.2077,37.2958
DAN,1995-02-15 11:00,2.0,0,1.0,-79.3361,36.5729
INT,1995-02-15 11:00,1.0,0,0.0,-80.222,36.1337
GSO,1995-02-15 12:00,0.35,0,0.0,-79.9436,36.0975
LWB,1995-02-15 12:00,1.0,0,0.0,-80.3995,37.8583
