station,start_time,zr_hours,label,duration,lon,lat
SWF,1995-01-12 08:00,1.0,0,0.0,-74.1048,41.5041
POU,1995-01-12 08:00,0.6,0,0.0,-73.8842,41.6266
CEF,1995-01-12 09:00,2.65,0,20.0,-72.5348,42.193999999999996
BDL,1995-01-12 09:00,1.77,0,20.0,-72.6825,41.9381
ALB,1995-01-12 09:00,2.33,0,2.0,-73.8036,42.7576
BTV,1995-01-12 10:00,5.32,0,5.0,-73.15,44.47
GFL,1995-01-12 10:00,3.12,0,8.0,-73.6103,43.3412
PBG,1995-01-12 10:00,2.0,0,1.0,-73.4624,44.6382
