station,start_time,zr_hours,label,duration,lon,lat
AVP,1995-01-07 02:35,5.43,0,5.42,-75.7227,41.3335
HPN,1995-01-07 03:00,0.5,0,0.0,-73.7075,41.0669
MMU,1995-01-07 03:00,9.0,1,0.0,-74.4149,40.7994
POU,1995-01-07 03:00,1.52,0,1.0,-73.8842,41.6266
BDL,1995-01-07 04:00,0.12,0,0.0,-72.6825,41.9381
