station,start_time,zr_hours,label,duration,lon,lat
HBR,1993-01-19 18:27,7.55,1,7.55,-99.0514,34.9913
FSI,1993-01-19 21:15,6.52,1,8.98,-98.4033,34.6449
END,1993-01-19 21:29,8.52,1,11.52,-97.9165,36.3392
PWA,1993-01-19 22:00,6.73,1,11.0,-97.6471,35.5342
ICT,1993-01-19 23:30,6.05,1,9.5,-97.43,37.65
IAB,1993-01-20 00:00,6.17,1,26.0,-97.2673,37.623000000000005
FRI,1993-01-20 02:00,6.55,1,7.0,-96.7645,39.0526
FOE,1993-01-20 05:00,6.0,1,7.0,-95.6636,38.9509
