station,start_time,zr_hours,label,duration,lon,lat
CYPL,2012-11-22 11:00,2.38,0,2.0,-90.2142,51.4464
CYXL,2012-11-22 18:46,0.47,0,0.23,-91.9053,50.1139
RDR,2012-11-22 19:23,0.05,0,0.03,-97.4012,47.9611
BDE,2012-11-22 21:15,1.75,0,1.63,-94.6122,48.7284
INL,2012-11-22 22:23,0.82,0,1.88,-93.3956,48.5595
CYHD,2012-11-22 23:44,0.35,0,0.27,-92.7442,49.8317
CYGQ,2012-11-23 00:38,1.07,0,0.58,-86.9306,49.7828
CYMO,2012-11-23 05:22,2.1,0,2.07,-80.6141,51.2891
