station,start_time,zr_hours,label,duration,lon,lat
LNK,2012-11-11 08:41,0.65,0,0.5,-96.7647,40.8478
TQE,2012-11-11 09:32,0.27,0,0.0,-96.1779,41.7635
MCI,2012-11-11 17:23,0.47,0,0.0,-94.7139,39.2976
LWD,2012-11-11 17:23,0.45,0,0.27,-93.9005,40.6306
DSM,2012-11-11 17:27,0.4,0,0.0,-93.6531,41.534
RST,2012-11-11 19:15,0.85,0,0.65,-92.4916,43.9041
OTM,2012-11-11 22:12,0.68,0,0.3,-92.4446,41.1008
