station,start_time,zr_hours,label,duration,lon,lat
CYRL,2012-12-01 01:30,18.63,1,25.5,-93.7931,51.0669
CYBR,2012-12-01 04:33,4.4,0,5.45,-99.9519,49.91
CYDN,2012-12-01 05:52,1.4,0,3.68,-100.0525,51.1008
CYQK,2012-12-01 10:00,3.53,0,6.0,-94.3653,49.7903
CYWG,2012-12-01 10:00,1.27,0,1.0,-97.2333,49.9167
HIB,2012-12-01 10:17,3.38,0,2.6,-92.839,47.3866
CYXL,2012-12-01 12:11,1.27,0,4.1,-91.9053,50.1139
