station,start_time,zr_hours,label,duration,lon,lat
BLF,2013-03-24 12:32,6.52,1,13.68,-81.2077,37.2958
BKW,2013-03-24 14:05,5.3,0,11.77,-81.1242,37.7873
LYH,2013-03-24 21:09,3.63,0,6.75,-79.2067,37.3208
ILN,2013-03-24 22:07,1.72,0,1.43,-83.8217,39.4203
FAF,2013-03-24 23:51,0.85,0,0.8,-76.6088,37.1325
PHF,2013-03-25 00:11,0.28,0,0.0,-76.493,37.1319
ROA,2013-03-25 01:54,1.55,0,1.57,-79.9737,37.3172
CHO,2013-03-25 03:53,1.38,0,1.0,-78.4529,38.1386
