station,start_time,zr_hours,label,duration,lon,lat
ORH,2006-01-05 10:54,1.0,0,0.0,-71.8757,42.2673
MMK,2006-01-05 11:39,0.87,0,0.6,-72.83,41.51
HFD,2006-01-05 12:30,0.48,0,0.38,-72.6494,41.7367
MHT,2006-01-05 12:53,0.67,0,0.4,-71.4358,42.9328
CON,2006-01-05 13:02,0.48,0,0.13,-71.5011,43.1953
DAW,2006-01-05 13:51,0.42,0,0.13,-70.92,43.28
ASH,2006-01-05 14:01,0.2,0,0.27,-71.5148,42.7818
