station,start_time,zr_hours,label,duration,lon,lat
OSU,2002-02-22 01:53,0.33,0,0.0,-83.08,40.08
MNN,2002-02-22 08:45,0.47,0,0.13,-83.0635,40.6162
BJJ,2002-02-22 09:24,0.48,0,0.0,-81.8882,40.8748
PHD,2002-02-22 12:17,0.47,0,0.38,-81.4236,40.4719
BKW,2002-02-22 12:51,0.88,0,0.0,-81.1242,37.7873
MGY,2002-02-22 13:00,0.83,0,0.68,-84.2249,39.589
BLF,2002-02-22 13:52,1.78,0,1.0,-81.2077,37.2958
