station,start_time,zr_hours,label,duration,lon,lat
ISN,2002-01-12 23:44,2.75,0,3.13,-103.6366,48.1738
BIS,2002-01-13 03:40,0.28,0,0.2,-100.7458,46.7727
MIB,2002-01-13 03:55,2.32,0,11.0,-101.35799999999999,48.4158
MOT,2002-01-13 04:17,1.25,0,0.8,-101.2803,48.2594
HON,2002-01-13 10:23,1.27,0,0.53,-98.2286,44.3852
