station,start_time,zr_hours,label,duration,lon,lat
RUE,2014-01-08 16:27,10.0,1,21.43,-93.0947,35.2578
FSM,2014-01-08 17:00,7.05,1,17.43,-94.3674,35.3366
LIT,2014-01-08 18:28,8.17,1,18.42,-92.2357,34.7273
HRO,2014-01-08 20:08,9.75,1,9.75,-93.1547,36.2615
BPK,2014-01-08 21:01,12.3,1,18.87,-92.47,36.37
PBF,2014-01-09 13:06,6.4,1,7.1,-91.9347,34.175
