station,start_time,zr_hours,label,duration,lon,lat
JEF,2016-02-16 09:53,1.8,0,1.48,-92.1561,38.5912
IRK,2016-02-16 10:21,1.3,0,1.17,-92.5433,40.0972
AMW,2016-02-16 10:27,0.32,0,0.2,-93.6185,41.9904
OTM,2016-02-16 10:39,2.22,0,2.53,-92.4446,41.1008
ISW,2016-02-16 11:03,0.08,0,0.0,-89.8369,44.3592
RST,2016-02-16 12:42,0.57,0,0.52,-92.4916,43.9041
UIN,2016-02-16 14:19,1.2,0,0.82,-91.1946,39.9428
