station,start_time,zr_hours,label,duration,lon,lat
ABE,1991-01-12 04:11,3.82,0,2.82,-75.4492,40.6508
ROC,1991-01-12 05:00,3.62,0,3.0,-77.6767,43.1167
GTB,1991-01-12 05:00,0.9,0,3.0,-75.7195,44.0556
BGM,1991-01-12 05:00,4.88,0,6.0,-75.9797,42.2086
AVP,1991-01-12 05:33,2.65,0,2.45,-75.7227,41.3335
