station,start_time,zr_hours,label,duration,lon,lat
MSP,1991-03-12 13:00,1.93,0,1.0,-93.2313,44.8854
STC,1991-03-12 14:00,0.2,0,0.0,-94.0513,45.5433
RWF,1991-03-12 14:00,1.0,0,0.0,-95.08200000000001,44.5469
STP,1991-03-12 15:00,1.0,0,0.0,-93.06,44.9345
AXN,1991-03-12 15:00,0.5,0,0.0,-95.3947,45.8663
