station,start_time,zr_hours,label,duration,lon,lat
PSM,1991-01-09 21:43,5.58,0,6.28,-70.8233,43.0779
ASH,1991-01-09 22:00,14.0,1,1.0,-71.5148,42.7818
CON,1991-01-09 22:12,1.22,0,1.8,-71.5011,43.1953
MHT,1991-01-09 23:00,4.0,0,4.0,-71.4358,42.9328
BED,1991-01-09 23:00,3.0,0,2.0,-71.289,42.47
PWM,1991-01-10 00:02,4.87,0,4.55,-70.3044,43.6424
