station,start_time,zr_hours,label,duration,lon,lat
MSL,1981-12-21 08:00,4.9,0,5.0,-87.5996,34.7438
HOP,1981-12-21 09:00,8.0,1,7.0,-87.4962,36.6686
BNA,1981-12-21 09:20,6.08,1,5.67,-86.6892,36.1189
MRC,1981-12-21 09:20,6.08,1,5.67,-87.1791,35.5544
BWG,1981-12-21 10:00,6.0,1,5.0,-86.4197,36.9645
