station,start_time,zr_hours,label,duration,lon,lat
CRW,1981-12-14 11:00,3.02,0,4.0,-81.59,38.3794
SHD,1981-12-14 11:40,1.33,0,0.0,-78.8964,38.2638
LWB,1981-12-14 12:00,1.0,0,0.0,-80.3995,37.8583
BKW,1981-12-14 12:00,1.0,0,0.0,-81.1242,37.7873
HTS,1981-12-14 12:00,5.0,0,4.0,-82.555,38.365
LYH,1981-12-14 12:28,5.78,0,12.53,-79.2067,37.3208
EKN,1981-12-14 13:00,5.0,0,4.0,-79.8528,38.8853
