station,start_time,zr_hours,label,duration,lon,lat
CYBR,2016-11-21 19:00,2.0,0,1.0,-99.9519,49.91
JMS,2016-11-22 04:10,2.17,0,2.08,-98.68,46.93
FAR,2016-11-22 06:50,1.67,0,1.58,-96.8111,46.9253
RDR,2016-11-22 07:59,1.15,0,0.98,-97.4012,47.9611
GFK,2016-11-22 08:00,2.88,0,3.58,-97.1761,47.9492
CYPG,2016-11-22 12:00,2.0,0,1.65,-98.2739,49.9031
CYNE,2016-11-22 12:59,4.55,0,7.82,-97.8442,53.9583
CYBV,2016-11-22 14:44,1.08,0,0.27,-97.0183,52.3589
