station,start_time,zr_hours,label,duration,lon,lat
PSF,2021-12-18 18:45,5.17,0,5.42,-73.2892,42.4272
RME,2021-12-18 19:30,2.25,0,3.08,-75.3953,43.2239
ORH,2021-12-18 19:30,8.18,1,13.75,-71.8757,42.2673
ALB,2021-12-18 20:22,2.48,0,2.38,-73.8036,42.7576
ORE,2021-12-18 21:00,2.25,0,2.17,-72.2886,42.5701
DDH,2021-12-18 21:05,2.67,0,2.67,-73.2486,42.8935
AQW,2021-12-18 21:15,4.08,0,4.08,-73.1702,42.6962
FIT,2021-12-18 22:05,2.58,0,12.42,-71.7558,42.5519
