station,start_time,zr_hours,label,duration,lon,lat
MCI,2022-01-01 08:04,0.57,0,2.52,-94.7139,39.2976
LXT,2022-01-01 08:53,1.25,0,4.2,-94.3714,38.9597
FOE,2022-01-01 09:30,0.42,0,17.17,-95.6636,38.9509
TOP,2022-01-01 10:08,0.12,0,0.03,-95.62,39.07
SZL,2022-01-01 10:09,4.85,0,8.78,-93.54799999999999,38.7303
IXD,2022-01-01 10:25,1.18,0,2.5,-94.8903,38.8309
OJC,2022-01-01 11:02,0.42,0,0.97,-94.7392,38.85
