station,start_time,zr_hours,label,duration,lon,lat
WST,2022-02-07 11:47,1.3,0,3.22,-71.7989,41.3497
VAY,2022-02-07 12:40,1.15,0,1.08,-74.8457,39.9429
BDR,2022-02-07 12:50,2.92,0,2.83,-73.1289,41.1583
PNE,2022-02-07 13:43,0.37,0,0.28,-75.0134,40.0789
TEB,2022-02-07 13:45,1.05,0,1.0,-74.0562,40.859
EWR,2022-02-07 14:08,1.7,0,2.03,-74.1693,40.6827
HVN,2022-02-07 14:14,2.17,0,2.43,-72.8868,41.2638
TTN,2022-02-07 15:19,0.1,0,0.02,-74.8159,40.2768
