station,start_time,zr_hours,label,duration,lon,lat
OLD,2008-12-25 01:22,1.07,0,0.72,-68.6743,44.9525
BGR,2008-12-25 01:22,1.07,0,0.72,-68.8281,44.8074
MLT,2008-12-25 01:28,3.87,0,4.55,-68.6856,45.6478
HUL,2008-12-25 01:51,2.48,0,2.03,-67.7921,46.1231
CYFC,2008-12-25 02:05,2.18,0,1.92,-66.5278,45.8722
CYCX,2008-12-25 02:10,1.18,0,8.43,-66.4367,45.8377
CAR,2008-12-25 03:02,3.27,0,2.87,-68.02,46.87
