station,start_time,zr_hours,label,duration,lon,lat
CRS,2015-02-23 11:53,4.8,0,9.27,-96.4,32.03
ADS,2015-02-23 12:47,1.42,0,1.02,-96.8364,32.9686
HQZ,2015-02-23 12:47,4.62,0,10.05,-96.5304,32.747
GTU,2015-02-23 12:50,1.0,0,0.0,-97.6767,30.6808
TYR,2015-02-23 13:50,5.82,0,10.05,-95.4024,32.3541
GPM,2015-02-23 13:50,2.0,0,1.0,-97.0469,32.6988
CNW,2015-02-23 13:53,1.98,0,0.98,-97.0741,31.6378
