station,start_time,zr_hours,label,duration,lon,lat
PNE,1995-12-19 10:00,12.0,1,17.0,-75.0134,40.0789
WRI,1995-12-19 11:00,5.17,0,13.0,-74.5917,40.0156
ILG,1995-12-19 11:37,16.02,1,18.38,-75.6008,39.6728
HGR,1995-12-19 12:00,4.57,0,4.0,-77.7297,39.7078
MUI,1995-12-19 13:00,1.35,0,6.0,-76.5693,40.4348
LNS,1995-12-19 13:00,6.57,1,9.0,-76.2944,40.1203
APG,1995-12-19 14:00,5.0,0,5.0,-76.1688,39.4662
