station,start_time,zr_hours,label,duration,lon,lat
TEB,1996-03-07 14:25,5.25,0,7.92,-74.0562,40.859
MMU,1996-03-07 14:55,4.08,0,4.08,-74.4149,40.7994
EWR,1996-03-07 15:00,7.82,1,9.58,-74.1693,40.6827
BDR,1996-03-07 15:45,8.47,1,8.25,-73.1289,41.1583
HPN,1996-03-07 16:00,5.0,0,4.0,-73.7075,41.0669
LGA,1996-03-07 16:00,4.0,0,7.0,-73.8803,40.7794
