station,start_time,zr_hours,label,duration,lon,lat
HLC,1986-12-07 01:00,13.0,1,1.0,-99.8297,39.3756
NRN,1986-12-07 01:00,13.0,1,1.0,-99.8947,39.8504
PHG,1986-12-07 01:00,13.0,1,1.0,-99.3171,39.7358
GRI,1986-12-07 03:00,9.0,1,8.0,-98.3096,40.9675
OFK,1986-12-07 04:00,3.32,0,3.0,-97.4351,41.9855
SUX,1986-12-07 06:00,2.3,0,2.0,-96.3795,42.3917
FSD,1986-12-07 07:00,0.53,0,0.0,-96.7536,43.5769
OMA,1986-12-07 09:00,1.73,0,5.0,-95.8992,41.3103
LNK,1986-12-07 10:00,2.2,0,2.0,-96.7647,40.8478
