station,start_time,zr_hours,label,duration,lon,lat
ORH,1987-01-11 00:00,2.0,0,1.0,-71.8757,42.2673
PSM,1987-01-11 01:06,4.27,0,3.9,-70.8233,43.0779
MHT,1987-01-11 04:00,8.0,1,8.0,-71.4358,42.9328
PWM,1987-01-11 11:22,4.7,0,4.63,-70.3044,43.6424
NHZ,1987-01-11 12:00,3.52,0,4.0,-69.9386,43.8922
