station,start_time,zr_hours,label,duration,lon,lat
CYYG,2008-01-28 13:00,10.27,1,21.65,-63.1286,46.2886
CYGR,2008-01-28 17:00,9.0,1,9.0,-61.7781,47.4247
CZBF,2008-01-28 23:34,10.32,1,47.43,-65.7483,47.6292
CYDF,2008-01-29 02:47,12.05,1,14.22,-57.3975,49.2108
CYAY,2008-01-29 10:00,9.55,1,9.55,-56.0856,51.3906
