station,start_time,zr_hours,label,duration,lon,lat
LTS,2007-12-09 07:39,5.87,0,34.27,-99.2667,34.6671
LBB,2007-12-09 07:53,3.0,0,2.0,-101.8228,33.6636
AMA,2007-12-09 07:53,1.0,0,0.0,-101.7059,35.2194
FDR,2007-12-09 08:37,11.88,1,31.47,-98.9839,34.3521
CDS,2007-12-09 08:53,3.0,0,2.0,-100.2881,34.4339
LAW,2007-12-09 09:53,5.75,0,30.0,-98.4166,34.5677
