station,start_time,zr_hours,label,duration,lon,lat
MFD,2008-03-04 09:52,14.0,1,16.0,-82.52,40.82
BJJ,2008-03-04 10:33,12.17,1,15.7,-81.8882,40.8748
CLE,2008-03-04 11:30,15.28,1,19.35,-81.8528,41.405
AKR,2008-03-04 12:04,7.57,1,12.08,-81.4669,41.0375
CAK,2008-03-04 12:31,14.43,1,19.8,-81.4422,40.9161
MNN,2008-03-04 12:53,14.0,1,17.0,-83.0635,40.6162
LPR,2008-03-04 12:53,5.0,0,17.0,-82.1794,41.3461
