station,start_time,zr_hours,label,duration,lon,lat
NRN,1997-12-21 17:53,7.0,1,13.0,-99.8947,39.8504
HLC,1997-12-21 17:53,7.0,1,13.0,-99.8297,39.3756
PHG,1997-12-21 17:53,7.0,1,13.0,-99.3171,39.7358
HSI,1997-12-21 18:53,11.0,1,17.0,-98.4279,40.6052
GRI,1997-12-21 18:56,16.0,1,17.0,-98.3096,40.9675
