station,start_time,zr_hours,label,duration,lon,lat
MRB,1998-01-15 10:01,10.78,1,13.82,-77.9847,39.4019
OFP,1998-01-15 10:40,1.67,0,1.23,-77.4366,37.7089
IAD,1998-01-15 10:51,3.48,0,7.0,-77.4473,38.9348
JST,1998-01-15 10:58,1.25,0,0.85,-78.8339,40.3161
AOO,1998-01-15 11:24,11.85,1,18.43,-78.32,40.2964
GKJ,1998-01-15 11:26,0.93,0,17.03,-80.2147,41.6265
CHO,1998-01-15 11:50,2.08,0,3.92,-78.4529,38.1386
DAN,1998-01-15 12:22,0.45,0,0.0,-79.3361,36.5729
HGR,1998-01-15 12:45,16.05,1,12.0,-77.7297,39.7078
