station,start_time,zr_hours,label,duration,lon,lat
LWM,1998-01-07 12:54,3.0,0,2.0,-71.1234,42.7172
MHT,1998-01-07 13:12,6.93,1,9.68,-71.4358,42.9328
PSM,1998-01-07 13:55,5.53,0,10.0,-70.8233,43.0779
CON,1998-01-07 15:00,7.4,1,8.85,-71.5011,43.1953
AFN,1998-01-07 15:08,21.85,1,57.73,-72.003,42.8051
ORH,1998-01-07 15:54,25.0,1,58.0,-71.8757,42.2673
BML,1998-01-07 16:04,6.12,1,6.8,-71.1786,44.5761
