station,start_time,zr_hours,label,duration,lon,lat
FWA,2012-01-25 20:47,8.07,1,16.12,-85.1871,40.978
CAK,2012-01-25 22:44,9.85,1,37.12,-81.4422,40.9161
DAY,2012-01-25 23:54,8.12,1,11.03,-84.2186,39.9061
MFD,2012-01-26 01:15,7.43,1,13.25,-82.52,40.82
YNG,2012-01-26 02:34,11.28,1,11.28,-80.6739,41.2544
UCP,2012-01-26 02:34,6.12,1,9.02,-80.4134,41.0253
