station,start_time,zr_hours,label,duration,lon,lat
CYTS,2012-01-23 06:33,10.95,1,13.45,-81.3767,48.5697
CYUY,2012-01-23 09:31,8.1,1,9.27,-78.8356,48.2061
CYVO,2012-01-23 11:42,7.1,1,7.68,-77.7867,48.0564
CYRJ,2012-01-23 23:29,11.78,1,12.52,-72.2656,48.52
CYQB,2012-01-23 23:37,10.38,1,10.38,-71.3933,46.7911
CYBG,2012-01-24 00:25,6.53,1,15.58,-70.9869,48.3339
CYYY,2012-01-24 05:00,7.0,1,7.0,-68.2081,48.6086
