station,start_time,zr_hours,label,duration,lon,lat
ABR,1998-11-18 05:20,1.25,0,1.12,-98.42,45.45
BIS,1998-11-18 08:55,3.0,0,2.0,-100.7458,46.7727
JMS,1998-11-18 09:47,3.03,0,3.0,-98.68,46.93
MBG,1998-11-18 10:55,5.0,0,4.0,-100.4078,45.5464
PIR,1998-11-18 12:30,0.33,0,0.0,-100.286,44.3827
