station,start_time,zr_hours,label,duration,lon,lat
IAG,1999-03-03 08:56,0.22,0,0.0,-78.9462,43.1073
HTL,1999-03-03 10:55,1.0,0,0.0,-84.6711,44.3598
ROC,1999-03-03 12:54,2.0,0,1.0,-77.6767,43.1167
LAN,1999-03-03 12:55,2.0,0,1.0,-84.58,42.78
GTB,1999-03-03 14:30,0.68,0,0.42,-75.7195,44.0556
MSS,1999-03-03 22:50,1.0,0,0.0,-74.8456,44.9358
CYOW,1999-03-03 23:34,9.08,1,15.0,-75.6692,45.3225
MWN,1999-03-04 06:58,8.02,1,6.93,-71.3035,44.2708
