station,start_time,zr_hours,label,duration,lon,lat
LOU,2000-01-17 23:48,6.03,1,5.12,-85.6637,38.228
CRE,2000-01-18 12:36,11.17,1,11.28,-78.7239,33.8118
NCA,2000-01-18 16:56,7.0,1,6.0,-77.4397,34.7084
EWN,2000-01-18 17:17,6.6,1,5.57,-77.0472,35.0675
NKT,2000-01-18 17:30,10.42,1,6.42,-76.88,34.9
RWI,2000-01-18 21:36,14.32,1,0.05,-77.8919,35.8562
