station,start_time,zr_hours,label,duration,lon,lat
IAG,1985-03-04 18:00,7.0,1,9.0,-78.9462,43.1073
DXR,1985-03-05 00:00,12.0,1,3.0,-73.48,41.37
HYA,1985-03-05 01:00,11.0,1,2.0,-70.28,41.67
SLK,1985-03-05 02:00,12.0,1,0.0,-74.2062,44.3853
UCA,1985-03-05 03:00,6.0,1,5.0,-75.3839,43.1451
PSM,1985-03-05 06:00,6.25,1,6.0,-70.8233,43.0779
