station,start_time,zr_hours,label,duration,lon,lat
CYYZ,2019-03-10 05:00,3.0,0,2.78,-79.6306,43.6772
CYOO,2019-03-10 06:15,0.85,0,0.98,-78.8833,43.9228
CYPQ,2019-03-10 07:20,0.75,0,0.77,-78.3633,44.23
CYQA,2019-03-10 07:21,4.68,0,13.62,-79.3033,44.9747
CYKF,2019-03-10 07:27,0.08,0,0.07,-80.3857,43.4616
CYBN,2019-03-10 07:28,1.47,0,0.83,-79.9219,44.2704
CYTR,2019-03-10 07:52,1.57,0,1.37,-77.5281,44.1189
