station,start_time,zr_hours,label,duration,lon,lat
OFF,2019-01-22 14:34,0.45,0,0.37,-95.9125,41.1183
LWD,2019-01-22 15:30,0.97,0,1.17,-93.9005,40.6306
FNB,2019-01-22 15:36,1.92,0,5.9,-95.59200000000001,40.0788
AAO,2019-01-22 15:45,1.82,0,1.92,-97.22,37.75
BEC,2019-01-22 15:55,2.67,0,4.0,-97.215,37.6945
IAB,2019-01-22 16:05,1.85,0,0.85,-97.2673,37.623000000000005
FRI,2019-01-22 16:32,4.38,0,5.17,-96.7645,39.0526
MHK,2019-01-22 16:45,2.98,0,4.0,-96.6778,39.1353
