station,start_time,zr_hours,label,duration,lon,lat
EAU,1996-12-12 07:52,2.02,0,1.0,-91.4843,44.8658
DLH,1996-12-12 12:26,2.48,0,2.05,-92.1936,46.8421
HTL,1996-12-12 13:55,1.0,0,0.0,-84.6711,44.3598
GRR,1996-12-12 14:56,1.0,0,0.0,-85.52,42.88
AUW,1996-12-12 15:50,3.0,0,2.0,-89.6266,44.9262
