station,start_time,zr_hours,label,duration,lon,lat
MCW,1997-03-13 03:50,8.0,1,15.0,-93.3261,43.1544
ALO,1997-03-13 14:54,3.0,0,10.0,-92.4013,42.5544
FSD,1997-03-13 15:56,2.0,0,1.0,-96.7536,43.5769
MSN,1997-03-13 20:54,3.0,0,8.0,-89.3453,43.1406
LNK,1997-03-13 21:43,0.25,0,0.78,-96.7647,40.8478
DBQ,1997-03-14 03:55,2.0,0,1.0,-90.7091,42.3984
