station,start_time,zr_hours,label,duration,lon,lat
IAG,2000-02-10 21:00,8.48,1,10.28,-78.9462,43.1073
BUF,2000-02-10 22:19,6.58,1,6.58,-78.7358,42.9408
ROC,2000-02-10 23:25,8.72,1,10.48,-77.6767,43.1167
GTB,2000-02-11 02:27,7.47,1,7.47,-75.7195,44.0556
NHZ,2000-02-11 08:05,9.67,1,13.83,-69.9386,43.8922
IWI,2000-02-11 12:31,8.57,1,9.93,-69.7126,43.9614
