station,start_time,zr_hours,label,duration,lon,lat
APN,1986-03-09 19:00,7.2,1,33.0,-83.5644,45.0717
PLN,1986-03-09 19:00,12.23,1,28.0,-84.7967,45.5709
CKN,1986-03-09 19:00,16.32,1,4.0,-96.6214,47.8417
ESC,1986-03-10 01:00,11.0,1,17.0,-87.0937,45.7227
SAW,1986-03-10 04:00,7.0,1,7.0,-87.3954,46.3536
