station,start_time,zr_hours,label,duration,lon,lat
JLN,1987-12-25 11:00,15.67,1,26.0,-94.4952,37.1522
TUL,1987-12-25 11:33,18.27,1,36.45,-95.8881,36.1984
PNC,1987-12-25 12:00,23.12,1,35.0,-97.1,36.73
CNU,1987-12-25 12:00,22.25,1,40.0,-95.4842,37.6703
BVO,1987-12-25 12:00,26.0,1,35.0,-96.0112,36.7625
WDG,1987-12-25 13:00,33.0,1,25.0,-97.7911,36.3792
