station,start_time,zr_hours,label,duration,lon,lat
ATL,1988-01-07 13:01,1.98,0,1.4,-84.4418,33.6301
WRB,1988-01-07 13:50,4.83,0,10.17,-83.5918,32.6401
CSG,1988-01-07 14:33,3.75,0,5.45,-84.9422,32.5161
MCN,1988-01-07 15:09,1.85,0,0.85,-83.6492,32.6928
LSF,1988-01-07 15:42,4.3,0,3.83,-84.9913,32.3373
