station,start_time,zr_hours,label,duration,lon,lat
MMT,1988-01-07 14:20,46.67,1,0.67,-80.8,33.92
CAE,1988-01-07 14:20,0.88,0,0.75,-81.1181,33.9419
SSC,1988-01-07 14:38,2.37,0,11.37,-80.47,33.97
CHS,1988-01-07 14:39,10.12,1,11.35,-80.0405,32.8986
SVN,1988-01-07 14:46,6.95,1,12.23,-81.146,32.01
NBC,1988-01-07 15:00,7.67,1,11.58,-80.7232,32.4774
SAV,1988-01-07 15:21,4.43,0,9.65,-81.2021,32.1276
MYR,1988-01-07 16:02,10.63,1,11.38,-78.93,33.68
