station,start_time,zr_hours,label,duration,lon,lat
ADG,2021-03-16 01:35,1.17,0,1.75,-84.0773,41.8677
DTW,2021-03-16 04:20,0.75,0,0.67,-83.33,42.23
CYCK,2021-03-16 06:36,0.63,0,0.4,-82.0817,42.3062
CYZR,2021-03-16 08:46,0.92,0,0.82,-82.3073,42.9951
JST,2021-03-16 09:30,0.67,0,0.58,-78.8339,40.3161
UNV,2021-03-16 10:45,0.33,0,0.13,-77.85,40.85
BFD,2021-03-16 11:05,1.1,0,1.17,-78.6401,41.8031
DKK,2021-03-16 11:10,0.48,0,0.42,-79.27199999999999,42.4933
ELZ,2021-03-16 19:15,0.58,0,0.5,-77.99,42.11
