station,start_time,zr_hours,label,duration,lon,lat
CEY,2000-12-13 14:26,10.5,1,10.08,-88.3728,36.6646
PAH,2000-12-13 14:26,10.5,1,10.08,-88.7744,37.0563
MKL,2000-12-13 15:39,4.13,0,5.7,-88.9167,35.5931
CGI,2000-12-13 15:44,7.03,1,8.15,-89.5708,37.2253
NQA,2000-12-13 15:50,1.0,0,0.0,-89.8703,35.3567
MDH,2000-12-13 16:59,7.15,1,6.92,-89.25,37.78
