station,start_time,zr_hours,label,duration,lon,lat
FOE,2001-01-28 09:27,8.65,1,8.43,-95.6636,38.9509
MCI,2001-01-28 09:36,10.28,1,9.28,-94.7139,39.2976
FLV,2001-01-28 09:36,10.28,1,9.28,-94.9147,39.3683
IXD,2001-01-28 09:38,3.68,0,9.43,-94.8903,38.8309
OJC,2001-01-28 09:53,9.02,1,9.77,-94.7392,38.85
LWC,2001-01-28 09:54,6.38,1,2.7,-95.2115,39.0077
TOP,2001-01-28 09:56,8.5,1,24.25,-95.62,39.07
MHK,2001-01-28 11:19,8.55,1,27.13,-96.6778,39.1353
