station,start_time,zr_hours,label,duration,lon,lat
HOT,2009-01-05 12:15,3.65,0,6.63,-93.0962,34.478
LRF,2009-01-05 13:45,4.32,0,18.62,-92.1465,34.9168
SRC,2009-01-05 14:04,5.0,0,11.45,-91.74,35.21
LIT,2009-01-05 14:13,11.32,1,19.23,-92.2357,34.7273
M19,2009-01-05 14:45,5.07,0,24.03,-91.1764,35.6377
JBR,2009-01-05 15:21,5.63,0,19.53,-90.6464,35.8317
HKA,2009-01-05 16:00,6.83,1,10.88,-89.83,35.94
AWM,2009-01-05 16:23,5.92,0,6.5,-90.2344,35.1351
PBF,2009-01-05 16:45,1.73,0,1.37,-91.9347,34.175
