station,start_time,zr_hours,label,duration,lon,lat
CON,1998-12-22 00:51,0.47,0,0.23,-71.5011,43.1953
IZG,1998-12-22 01:08,2.77,0,3.0,-70.9479,43.9911
BML,1998-12-22 01:12,1.38,0,1.25,-71.1786,44.5761
PWM,1998-12-22 02:04,0.42,0,0.0,-70.3044,43.6424
AUG,1998-12-22 02:11,3.87,0,3.65,-69.8,44.32
NHZ,1998-12-22 02:55,1.0,0,0.0,-69.9386,43.8922
