station,start_time,zr_hours,label,duration,lon,lat
INT,1999-03-09 20:54,1.0,0,0.0,-80.222,36.1337
LYH,1999-03-09 21:23,0.58,0,0.87,-79.2067,37.3208
DAN,1999-03-09 21:49,0.92,0,1.47,-79.3361,36.5729
RDU,1999-03-09 21:51,3.0,0,3.0,-78.7819,35.8922
BUY,1999-03-09 22:54,2.0,0,1.0,-79.4749,36.0485
