station,start_time,zr_hours,label,duration,lon,lat
BWG,1999-01-08 02:53,9.93,1,11.0,-86.4197,36.9645
OWB,1999-01-08 03:00,1.75,0,21.25,-87.1668,37.7388
SDF,1999-01-08 03:02,7.38,1,26.9,-85.736,38.1744
LOU,1999-01-08 03:50,8.92,1,28.1,-85.6637,38.228
LEX,1999-01-08 04:01,9.98,1,30.65,-84.6058,38.0408
FFT,1999-01-08 04:24,9.2,1,26.48,-84.9033,38.1847
HOP,1999-01-08 04:28,9.38,1,24.45,-87.4962,36.6686
LOZ,1999-01-08 04:53,1.63,0,1.58,-84.07700000000001,37.086999999999996
