station,start_time,zr_hours,label,duration,lon,lat
ORH,1986-12-09 15:00,4.0,0,9.0,-71.8757,42.2673
BDL,1986-12-09 15:38,6.37,1,8.37,-72.6825,41.9381
HFD,1986-12-09 16:00,6.8,1,9.0,-72.6494,41.7367
BDR,1986-12-09 16:00,1.25,0,1.0,-73.1289,41.1583
POU,1986-12-09 17:00,1.0,0,0.0,-73.8842,41.6266
