station,start_time,zr_hours,label,duration,lon,lat
UCA,1986-11-21 01:00,2.0,0,1.0,-75.3839,43.1451
SYR,1986-11-21 01:00,1.37,0,2.0,-76.1063,43.1112
RME,1986-11-21 01:00,0.63,0,1.0,-75.3953,43.2239
ROC,1986-11-21 02:00,2.0,0,1.0,-77.6767,43.1167
ELM,1986-11-21 02:00,2.0,0,0.0,-76.8994,42.1571
