station,start_time,zr_hours,label,duration,lon,lat
ART,1986-12-09 14:00,3.23,0,2.0,-76.0262,43.9888
GTB,1986-12-09 15:00,3.57,0,3.0,-75.7195,44.0556
BGM,1986-12-09 15:00,1.08,0,2.0,-75.9797,42.2086
UCA,1986-12-09 16:00,4.78,0,5.0,-75.3839,43.1451
RME,1986-12-09 16:00,5.08,0,5.0,-75.3953,43.2239
SYR,1986-12-09 16:00,2.67,0,4.0,-76.1063,43.1112
SLK,1986-12-09 17:00,10.0,1,4.0,-74.2062,44.3853
