station,start_time,zr_hours,label,duration,lon,lat
BLF,1987-02-16 08:25,6.58,1,6.17,-81.2077,37.2958
BKW,1987-02-16 09:00,10.0,1,19.0,-81.1242,37.7873
ROA,1987-02-16 09:00,5.58,0,6.02,-79.9737,37.3172
HTS,1987-02-16 10:00,7.22,1,18.18,-82.555,38.365
CRW,1987-02-16 10:20,20.65,1,25.2,-81.59,38.3794
