station,start_time,zr_hours,label,duration,lon,lat
AQW,2004-12-07 17:52,2.0,0,1.0,-73.1702,42.6962
VSF,2004-12-07 18:54,5.0,0,9.0,-72.5173,43.3436
MHT,2004-12-07 19:04,5.1,0,13.48,-71.4358,42.9328
CON,2004-12-07 19:25,7.03,1,10.9,-71.5011,43.1953
ASH,2004-12-07 19:45,6.0,1,5.0,-71.5148,42.7818
IZG,2004-12-07 19:47,5.05,0,11.3,-70.9479,43.9911
DAW,2004-12-07 19:51,9.23,1,11.0,-70.92,43.28
