station,start_time,zr_hours,label,duration,lon,lat
UNO,2005-01-29 00:09,5.22,0,5.27,-91.9027,36.8784
VIH,2005-01-29 01:40,3.8,0,5.22,-91.77,38.13
TBN,2005-01-29 01:45,11.17,1,1.17,-92.1407,37.7416
JEF,2005-01-29 02:39,1.82,0,4.83,-92.1561,38.5912
COU,2005-01-29 03:17,1.32,0,4.62,-92.2183,38.8169
SUS,2005-01-29 03:33,0.82,0,2.75,-90.6558,38.6572
