station,start_time,zr_hours,label,duration,lon,lat
PLN,2005-03-07 07:03,1.55,0,5.3,-84.7967,45.5709
APN,2005-03-07 08:54,0.65,0,0.22,-83.5644,45.0717
EAU,2005-03-07 10:36,0.33,0,0.0,-91.4843,44.8658
MFI,2005-03-07 12:37,0.15,0,0.0,-90.1893,44.6369
ISW,2005-03-07 13:17,0.4,0,0.0,-89.8369,44.3592
ASX,2005-03-07 17:08,0.35,0,0.0,-90.9189,46.5487
