station,start_time,zr_hours,label,duration,lon,lat
FTW,2022-02-23 09:53,3.8,0,28.28,-97.3624,32.8198
DAL,2022-02-23 10:02,1.08,0,1.05,-96.8518,32.8471
AFW,2022-02-23 10:03,0.8,0,2.78,-97.3179,32.9716
DFW,2022-02-23 10:05,1.08,0,1.0,-97.038,32.8968
SPS,2022-02-23 10:31,0.32,0,0.23,-98.4928,33.9786
DTO,2022-02-23 10:45,7.72,1,27.67,-97.2006,33.205
TKI,2022-02-23 11:00,6.27,1,29.0,-96.59,33.18
FSI,2022-02-23 11:50,2.77,0,26.88,-98.4033,34.6449
