station,start_time,zr_hours,label,duration,lon,lat
CYBR,2022-01-31 20:14,3.95,0,9.77,-99.9519,49.91
CYPG,2022-01-31 21:00,15.0,1,2.0,-98.2739,49.9031
JMS,2022-02-01 00:05,1.37,0,2.08,-98.68,46.93
RDR,2022-02-01 00:19,2.58,0,2.15,-97.4012,47.9611
GFK,2022-02-01 10:40,0.13,0,0.08,-97.1761,47.9492
CYQK,2022-02-01 13:00,1.57,0,1.0,-94.3653,49.7903
CYHD,2022-02-01 14:55,1.37,0,1.47,-92.7442,49.8317
