station,start_time,zr_hours,label,duration,lon,lat
XWA,2022-01-21 06:03,1.13,0,0.8,-103.7505,48.2597
MIB,2022-01-21 08:36,1.48,0,1.45,-101.35799999999999,48.4158
HEI,2022-01-21 08:50,0.3,0,1.0,-102.656,46.0149
RAP,2022-01-21 10:35,0.58,0,0.75,-103.0574,44.0453
SNY,2022-01-21 13:35,0.58,0,0.5,-102.9847,41.1014
PIR,2022-01-21 15:05,1.08,0,1.0,-100.286,44.3827
ICR,2022-01-21 16:20,1.5,0,1.67,-99.8422,43.3903
