station,start_time,zr_hours,label,duration,lon,lat
RSP,2022-02-25 00:12,6.77,1,12.7,-77.468,39.645
MRB,2022-02-25 00:30,3.62,0,10.38,-77.9847,39.4019
AKR,2022-02-25 00:35,6.15,1,8.0,-81.4669,41.0375
ACY,2022-02-25 00:36,3.15,0,2.3,-74.5772,39.4576
CAK,2022-02-25 01:13,8.93,1,8.87,-81.4422,40.9161
CLE,2022-02-25 01:20,8.93,1,9.33,-81.8528,41.405
HGR,2022-02-25 01:21,5.47,0,12.32,-77.7297,39.7078
YNG,2022-02-25 01:28,8.7,1,8.62,-80.6739,41.2544
APG,2022-02-25 01:33,4.45,0,7.42,-76.1688,39.4662
PIT,2022-02-25 01:50,4.72,0,4.67,-80.2329,40.4915
MIV,2022-02-25 01:54,3.08,0,4.18,-75.0783,39.3661
WRI,2022-02-25 02:21,7.12,1,6.58,-74.5917,40.0156
VAY,2022-02-25 02:30,3.58,0,5.08,-74.8457,39.9429
NEL,2022-02-25 02:31,5.38,0,5.48,-74.3536,40.0334
JST,2022-02-25 02:35,6.63,1,8.67,-78.8339,40.3161
ILG,2022-02-25 02:35,4.77,0,6.0,-75.6008,39.6728
ADW,2022-02-25 02:40,3.42,0,3.27,-76.867,38.8108
UCP,2022-02-25 02:50,1.0,0,1.17,-80.4134,41.0253
AOO,2022-02-25 02:53,6.97,1,10.37,-78.32,40.2964
PHL,2022-02-25 02:57,2.62,0,4.22,-75.2311,39.8683
XIF,2022-02-25 02:58,5.0,0,10.0,-77.43,39.729
DUJ,2022-02-25 03:10,6.57,1,8.5,-78.9,41.18
BFD,2022-02-25 03:15,5.48,0,9.92,-78.6401,41.8031
FIG,2022-02-25 03:25,5.68,0,9.28,-78.4117,41.0467
THV,2022-02-25 03:40,3.58,0,8.5,-76.873,39.917
PNE,2022-02-25 03:40,2.58,0,3.75,-75.0134,40.0789
GKJ,2022-02-25 03:45,4.82,0,6.67,-80.2147,41.6265
MDT,2022-02-25 04:10,5.7,0,8.88,-76.7633,40.1936
CXY,2022-02-25 04:10,3.08,0,8.98,-76.8515,40.2171
LNS,2022-02-25 04:10,4.9,0,5.17,-76.2944,40.1203
LPR,2022-02-25 04:20,1.62,0,1.58,-82.1794,41.3461
BWI,2022-02-25 04:25,2.58,0,2.92,-76.6683,39.1754
RDG,2022-02-25 04:35,7.3,1,9.0,-75.9652,40.3785
MUI,2022-02-25 04:36,6.6,1,9.33,-76.5693,40.4348
SEG,2022-02-25 04:40,4.45,0,9.25,-76.8639,40.8206
ERI,2022-02-25 04:40,2.42,0,6.08,-80.18,42.08
PTW,2022-02-25 04:40,6.93,1,8.42,-75.5572,40.2383
TTN,2022-02-25 05:05,9.75,1,10.58,-74.8159,40.2768
HZY,2022-02-25 05:10,4.6,0,4.72,-80.6955,41.778
EWR,2022-02-25 05:17,9.03,1,9.8,-74.1693,40.6827
JFK,2022-02-25 05:24,5.88,0,9.85,-73.7622,40.6386
SMQ,2022-02-25 05:25,5.5,0,8.83,-74.6694,40.6239
DYL,2022-02-25 05:25,4.87,0,8.83,-75.1223,40.333
ABE,2022-02-25 05:25,6.35,1,9.17,-75.4492,40.6508
FRG,2022-02-25 05:35,3.98,0,9.6,-73.4134,40.7288
ISP,2022-02-25 05:45,4.23,0,9.67,-73.1017,40.7939
MPO,2022-02-25 05:50,3.7,0,10.08,-75.3794,41.1389
HWV,2022-02-25 05:50,3.42,0,4.5,-72.8689,40.8217
AVP,2022-02-25 05:50,2.4,0,8.5,-75.7227,41.3335
FOK,2022-02-25 05:53,3.87,0,4.45,-72.6318,40.8436
HPN,2022-02-25 06:05,6.73,1,8.75,-73.7075,41.0669
LGA,2022-02-25 06:08,7.85,1,9.12,-73.8803,40.7794
NYC,2022-02-25 06:27,7.28,1,8.13,-73.9692,40.779
HTO,2022-02-25 06:35,1.67,0,2.67,-72.25,40.96
TEB,2022-02-25 06:40,5.05,0,8.3,-74.0562,40.859
CDW,2022-02-25 06:40,6.25,1,9.5,-74.2831,40.8764
SWF,2022-02-25 06:45,3.0,0,8.0,-74.1048,41.5041
DKK,2022-02-25 06:53,0.23,0,4.2,-79.27199999999999,42.4933
CYQG,2022-02-25 07:17,1.98,0,3.22,-82.9604,42.266000000000005
GON,2022-02-25 07:45,4.38,0,8.18,-72.05,41.33
PTK,2022-02-25 08:10,0.33,0,0.25,-83.4201,42.6655
HVN,2022-02-25 08:15,3.83,0,7.0,-72.8868,41.2638
CYZR,2022-02-25 08:22,0.17,0,0.15,-82.3073,42.9951
DTW,2022-02-25 09:03,0.8,0,1.45,-83.33,42.23
CYCK,2022-02-25 09:08,0.48,0,1.38,-82.0817,42.3062
MVY,2022-02-25 09:15,1.33,0,1.25,-70.615,41.3931
DET,2022-02-25 09:35,0.25,0,1.08,-83.0099,42.4092
ELZ,2022-02-25 09:35,1.65,0,4.35,-77.99,42.11
ADG,2022-02-25 09:50,0.17,0,0.08,-84.0773,41.8677
ARB,2022-02-25 09:55,0.17,0,0.1,-83.7397,42.224
FMH,2022-02-25 09:56,6.98,1,18.98,-70.5215,41.6585
IPT,2022-02-25 10:05,0.5,0,0.42,-76.9217,41.2433
BDR,2022-02-25 10:15,2.38,0,5.17,-73.1289,41.1583
IAG,2022-02-25 10:53,1.95,0,1.87,-78.9462,43.1073
PEO,2022-02-25 12:35,0.3,0,0.25,-77.0529,42.6371
BGM,2022-02-25 12:35,1.0,0,2.6,-75.9797,42.2086
WST,2022-02-25 13:20,2.25,0,2.33,-71.7989,41.3497
DSV,2022-02-25 13:30,0.33,0,0.25,-77.71300000000001,42.5709
FWN,2022-02-25 13:39,0.85,0,0.85,-74.623,41.2002
UUU,2022-02-25 13:48,0.95,0,0.87,-71.2815,41.5324
FZY,2022-02-25 13:50,0.68,0,0.67,-76.3831,43.3504
DXR,2022-02-25 14:05,1.8,0,2.08,-73.48,41.37
MMK,2022-02-25 14:30,2.17,0,4.0,-72.83,41.51
PVD,2022-02-25 15:48,0.57,0,0.53,-71.4325,41.7219
MGJ,2022-02-25 16:25,0.75,0,0.67,-74.265,41.5092
PSF,2022-02-25 16:29,0.68,0,0.6,-73.2892,42.4272
BAF,2022-02-25 16:35,0.58,0,1.5,-72.7161,42.1578
POU,2022-02-25 16:53,0.22,0,0.2,-73.8842,41.6266
ORE,2022-02-25 17:15,0.62,0,0.58,-72.2886,42.5701
ORH,2022-02-25 17:40,0.5,0,0.42,-71.8757,42.2673
FIT,2022-02-25 18:00,0.2,0,0.08,-71.7558,42.5519
CQX,2022-02-26 03:55,0.33,0,0.25,-69.9933,41.6875
