station,start_time,zr_hours,label,duration,lon,lat
FWA,2002-01-21 09:54,0.7,0,0.18,-85.1871,40.978
BEH,2002-01-21 10:07,1.0,0,0.77,-86.4285,42.1286
SBN,2002-01-21 10:19,0.18,0,0.0,-86.3164,41.7072
AZO,2002-01-21 10:53,0.3,0,0.0,-85.5519,42.2347
YIP,2002-01-21 11:32,0.13,0,0.0,-83.5304,42.2379
DTW,2002-01-21 11:35,0.32,0,0.0,-83.33,42.23
BTL,2002-01-21 11:53,1.23,0,1.12,-85.2515,42.3073
GSH,2002-01-21 13:56,0.37,0,0.0,-85.7922,41.5272
