station,start_time,zr_hours,label,duration,lon,lat
JXN,2002-01-06 23:40,0.4,0,0.27,-84.4594,42.2598
MIE,2002-01-07 02:07,1.33,0,2.95,-85.3958,40.2425
CSV,2002-01-07 02:22,3.35,0,2.52,-85.085,35.9513
AOH,2002-01-07 07:30,0.1,0,0.0,-84.0267,40.7069
MGY,2002-01-07 13:30,0.38,0,0.0,-84.2249,39.589
