station,start_time,zr_hours,label,duration,lon,lat
ARR,2020-12-30 02:42,6.6,1,6.72,-88.48,41.77
MDW,2020-12-30 03:07,5.62,0,5.55,-87.7524,41.786
DPA,2020-12-30 03:22,5.23,0,5.63,-88.2486,41.9078
PWK,2020-12-30 03:38,5.45,0,5.62,-87.9047,42.1208
ORD,2020-12-30 03:41,5.48,0,5.4,-87.9319,41.9875
UGN,2020-12-30 03:55,4.53,0,5.83,-87.8679,42.4222
ENW,2020-12-30 04:30,0.75,0,0.67,-87.9381,42.595
RFD,2020-12-30 04:41,1.3,0,5.73,-89.09299999999999,42.1927
