station,start_time,zr_hours,label,duration,lon,lat
MRB,2014-12-09 02:51,8.55,1,9.43,-77.9847,39.4019
HGR,2014-12-09 03:27,8.67,1,9.43,-77.7297,39.7078
RSP,2014-12-09 03:29,8.55,1,10.42,-77.468,39.645
ORH,2014-12-09 06:30,8.65,1,9.95,-71.8757,42.2673
PSM,2014-12-09 06:58,7.35,1,8.0,-70.8233,43.0779
