station,start_time,zr_hours,label,duration,lon,lat
MDT,2015-03-03 18:39,9.88,1,14.88,-76.7633,40.1936
FIG,2015-03-03 19:32,6.35,1,8.07,-78.4117,41.0467
ILG,2015-03-03 20:08,6.72,1,6.72,-75.6008,39.6728
PHL,2015-03-03 20:23,7.15,1,7.15,-75.2311,39.8683
TTN,2015-03-03 21:41,14.2,1,14.2,-74.8159,40.2768
