station,start_time,zr_hours,label,duration,lon,lat
AVL,1980-03-13 00:00,6.65,1,13.0,-82.5375,35.4319
HUF,1980-03-13 05:00,6.0,1,5.0,-87.3076,39.4515
ZZV,1980-03-13 06:00,6.0,1,6.0,-81.8921,39.9444
BKW,1980-03-13 07:00,12.0,1,11.0,-81.1242,37.7873
DAN,1980-03-13 11:00,8.5,1,8.0,-79.3361,36.5729
