station,start_time,zr_hours,label,duration,lon,lat
BRL,1984-12-26 11:32,2.1,0,2.15,-91.1255,40.7729
OTM,1984-12-26 12:00,3.0,0,2.0,-92.4446,41.1008
LWD,1984-12-26 12:00,5.0,0,5.0,-93.9005,40.6306
UIN,1984-12-26 13:00,2.0,0,1.0,-91.1946,39.9428
IRK,1984-12-26 13:00,0.3,0,0.0,-92.5433,40.0972
