station,start_time,zr_hours,label,duration,lon,lat
MSV,1984-12-21 21:00,15.0,1,2.0,-74.795,41.7016
POU,1984-12-21 22:00,4.0,0,3.0,-73.8842,41.6266
BDR,1984-12-21 22:00,3.0,0,2.0,-73.1289,41.1583
HPN,1984-12-21 22:00,0.42,0,0.0,-73.7075,41.0669
SWF,1984-12-21 22:00,1.0,0,0.0,-74.1048,41.5041
BGM,1984-12-21 22:00,3.53,0,4.0,-75.9797,42.2086
DXR,1984-12-21 22:00,3.0,0,2.0,-73.48,41.37
