station,start_time,zr_hours,label,duration,lon,lat
BIE,1984-12-15 13:00,2.0,0,1.0,-96.7541,40.3013
EAR,1984-12-15 13:00,5.0,0,2.0,-99.0068,40.727
OLU,1984-12-15 13:00,6.0,1,2.0,-97.3426,41.448
ODX,1984-12-15 14:00,5.0,0,1.0,-98.9517,41.6236
HSI,1984-12-15 14:00,4.42,0,1.0,-98.4279,40.6052
