station,start_time,zr_hours,label,duration,lon,lat
BYH,1987-01-24 20:37,9.13,1,8.52,-89.9439,35.9643
HOP,1987-01-24 22:48,12.52,1,16.37,-87.4962,36.6686
BNA,1987-01-25 00:09,18.85,1,19.53,-86.6892,36.1189
MRC,1987-01-25 00:09,18.85,1,19.53,-87.1791,35.5544
BWG,1987-01-25 03:00,11.78,1,15.0,-86.4197,36.9645
