station,start_time,zr_hours,label,duration,lon,lat
GSO,1989-02-17 13:00,6.62,1,7.0,-79.9436,36.0975
AVL,1989-02-17 18:00,16.5,1,19.0,-82.5375,35.4319
ISO,1989-02-18 00:00,6.0,1,25.0,-77.61,35.33
GSB,1989-02-18 00:00,13.15,1,18.0,-77.9606,35.3394
GSP,1989-02-18 01:17,20.83,1,24.77,-82.2239,34.8847
CLT,1989-02-18 02:00,11.4,1,21.0,-80.9543,35.2226
POB,1989-02-18 05:00,7.83,1,24.0,-79.0145,35.1709
