station,start_time,zr_hours,label,duration,lon,lat
PWA,1989-02-14 15:00,12.98,1,23.0,-97.6471,35.5342
WDG,1989-02-14 16:21,15.67,1,21.65,-97.7911,36.3792
END,1989-02-14 16:37,7.82,1,15.38,-97.9165,36.3392
SZL,1989-02-15 00:00,6.08,1,18.0,-93.54799999999999,38.7303
EMP,1989-02-15 02:00,10.08,1,2.0,-96.1897,38.3306
