station,start_time,zr_hours,label,duration,lon,lat
BPT,1989-02-04 15:00,7.12,1,17.0,-94.0261,29.9521
HOU,1989-02-04 20:00,7.03,1,50.0,-95.2824,29.6375
LFK,1989-02-04 20:00,12.0,1,8.0,-94.75,31.234
GGG,1989-02-04 21:00,15.0,1,19.0,-94.7115,32.384
CDH,1989-02-04 21:50,52.25,1,0.0,-92.7634,33.6228
AEX,1989-02-05 02:00,11.12,1,25.0,-92.5586,31.3347
GWO,1989-02-05 05:00,6.47,1,31.0,-90.0847,33.4943
CSV,1989-02-05 06:00,14.73,1,50.0,-85.085,35.9513
