station,start_time,zr_hours,label,duration,lon,lat
SYR,1997-12-25 03:54,6.0,1,5.0,-76.1063,43.1112
BGM,1997-12-25 03:56,3.0,0,2.0,-75.9797,42.2086
FZY,1997-12-25 04:54,4.0,0,3.0,-76.3831,43.3504
GTB,1997-12-25 05:40,3.25,0,2.25,-75.7195,44.0556
ART,1997-12-25 05:48,2.0,0,1.0,-76.0262,43.9888
