station,start_time,zr_hours,label,duration,lon,lat
BAF,2016-12-29 20:23,1.17,0,1.12,-72.7161,42.1578
PWM,2016-12-29 21:45,1.08,0,1.0,-70.3044,43.6424
DAW,2016-12-29 21:50,2.32,0,2.25,-70.92,43.28
AUG,2016-12-30 00:35,0.3,0,0.17,-69.8,44.32
CYQM,2016-12-30 06:38,0.27,0,0.0,-64.6878,46.1039
CYFC,2016-12-30 07:22,0.35,0,0.22,-66.5278,45.8722
CYCX,2016-12-30 07:31,0.48,0,0.0,-66.4367,45.8377
