station,start_time,zr_hours,label,duration,lon,lat
TQE,2017-03-13 04:18,0.28,0,0.1,-96.1779,41.7635
OFF,2017-03-13 08:43,2.13,0,2.63,-95.9125,41.1183
OMA,2017-03-13 09:39,0.47,0,0.35,-95.8992,41.3103
BLV,2017-03-13 12:04,0.68,0,11.68,-89.8352,38.5452
IXD,2017-03-13 15:50,1.47,0,1.33,-94.8903,38.8309
OJC,2017-03-13 15:51,0.53,0,1.48,-94.7392,38.85
COU,2017-03-13 16:54,1.08,0,1.45,-92.2183,38.8169
TBN,2017-03-13 18:32,0.43,0,0.0,-92.1407,37.7416
