station,start_time,zr_hours,label,duration,lon,lat
CYYG,2012-02-12 01:00,3.42,0,3.0,-63.1286,46.2886
CYGR,2012-02-12 01:22,12.63,1,1.63,-61.7781,47.4247
CYHZ,2012-02-12 04:42,1.53,0,1.3,-63.5086,44.8808
CYPD,2012-02-12 08:40,1.48,0,1.33,-61.3681,45.6567
CWSA,2012-02-12 17:34,0.88,0,1.1,-60.0094,43.9322
