station,start_time,zr_hours,label,duration,lon,lat
DAW,2012-12-17 16:51,3.8,0,13.0,-70.92,43.28
MVL,2012-12-17 17:09,0.52,0,0.13,-72.61399999999999,44.5346
LEB,2012-12-17 19:06,1.18,0,5.02,-72.3042,43.6261
IZG,2012-12-17 21:29,6.7,1,13.42,-70.9479,43.9911
AUG,2012-12-17 22:09,1.85,0,9.73,-69.8,44.32
PWM,2012-12-18 04:58,0.73,0,0.0,-70.3044,43.6424
BML,2012-12-18 12:28,0.32,0,0.0,-71.1786,44.5761
