station,start_time,zr_hours,label,duration,lon,lat
MBS,2005-12-25 19:13,2.93,0,4.03,-84.08,43.53
APN,2005-12-25 20:00,0.5,0,0.28,-83.5644,45.0717
LEX,2005-12-26 01:54,3.57,0,6.0,-84.6058,38.0408
DFI,2005-12-26 03:10,1.97,0,3.72,-84.4288,41.3375
LOZ,2005-12-26 10:14,1.32,0,3.83,-84.07700000000001,37.086999999999996
PKB,2005-12-26 12:14,0.73,0,3.27,-81.4392,39.3451
EKN,2005-12-26 20:01,1.83,0,1.5,-79.8528,38.8853
BKW,2005-12-26 20:10,0.42,0,0.0,-81.1242,37.7873
BLF,2005-12-26 20:42,1.42,0,1.3,-81.2077,37.2958
