station,start_time,zr_hours,label,duration,lon,lat
MFD,2005-11-30 07:15,1.02,0,5.62,-82.52,40.82
GRR,2005-11-30 07:56,2.45,0,2.0,-85.52,42.88
ADG,2005-11-30 08:17,0.2,0,0.12,-84.0773,41.8677
BIV,2005-11-30 08:46,0.3,0,0.12,-86.0967,42.7461
ARB,2005-11-30 09:03,0.83,0,0.62,-83.7397,42.224
FDY,2005-11-30 10:33,0.33,0,0.0,-83.6686,41.0136
MNN,2005-11-30 11:51,1.03,0,0.75,-83.0635,40.6162
GKJ,2005-11-30 13:26,0.68,0,0.45,-80.2147,41.6265
