station,start_time,zr_hours,label,duration,lon,lat
CYOW,2006-01-11 10:00,8.6,1,8.0,-75.6692,45.3225
MSS,2006-01-11 10:53,3.0,0,3.0,-74.8456,44.9358
SLK,2006-01-11 11:51,1.0,0,0.0,-74.2062,44.3853
HIE,2006-01-11 12:18,1.0,0,0.57,-71.5522,44.3659
MVL,2006-01-11 12:54,1.0,0,0.0,-72.61399999999999,44.5346
MLT,2006-01-11 19:13,3.87,0,12.75,-68.6856,45.6478
CAR,2006-01-11 20:15,4.98,0,19.2,-68.02,46.87
HUL,2006-01-11 20:16,1.02,0,0.62,-67.7921,46.1231
FVE,2006-01-12 01:53,8.17,1,12.0,-68.3127,47.2855
