station,start_time,zr_hours,label,duration,lon,lat
MPV,2003-03-20 18:51,1.0,0,0.0,-72.5623,44.2035
MSS,2003-03-20 20:53,2.0,0,1.0,-74.8456,44.9358
MLT,2003-03-21 03:12,2.23,0,2.15,-68.6856,45.6478
FVE,2003-03-21 04:16,12.65,1,12.62,-68.3127,47.2855
CAR,2003-03-21 06:54,2.12,0,2.0,-68.02,46.87
MWN,2003-03-21 08:52,1.02,0,0.0,-71.3035,44.2708
