station,start_time,zr_hours,label,duration,lon,lat
MPO,2003-02-12 12:17,0.6,0,0.12,-75.3794,41.1389
TTN,2003-02-12 12:43,0.95,0,1.43,-74.8159,40.2768
PNE,2003-02-12 12:54,1.93,0,1.0,-75.0134,40.0789
PSF,2003-02-12 14:54,3.0,0,4.0,-73.2892,42.4272
MGJ,2003-02-12 15:54,2.0,0,1.0,-74.265,41.5092
