station,start_time,zr_hours,label,duration,lon,lat
GRD,2004-02-26 08:56,4.98,0,13.0,-82.16,34.25
LQK,2004-02-26 10:34,0.33,0,0.12,-82.7029,34.81
CEU,2004-02-26 10:34,0.33,0,0.12,-82.8868,34.6719
GMU,2004-02-26 10:38,0.37,0,0.25,-82.3461,34.8461
AND,2004-02-26 10:48,1.1,0,9.78,-82.7094,34.4946
