station,start_time,zr_hours,label,duration,lon,lat
AAO,2005-11-28 11:33,1.03,0,1.35,-97.22,37.75
AXN,2005-11-28 17:46,0.47,0,0.35,-95.3947,45.8663
PPF,2005-11-28 22:50,0.47,0,0.03,-95.5042,37.3278
STJ,2005-11-28 23:27,0.43,0,0.18,-94.9097,39.7719
MIW,2005-11-28 23:53,1.0,0,0.0,-92.9163,42.1106
LWD,2005-11-29 00:53,1.0,0,0.0,-93.9005,40.6306
IRK,2005-11-29 03:23,1.22,0,1.9,-92.5433,40.0972
DVN,2005-11-29 07:52,1.0,0,0.0,-90.5948,41.6133
MLI,2005-11-29 09:27,0.63,0,0.42,-90.5075,41.4485
