station,start_time,zr_hours,label,duration,lon,lat
SLK,2006-02-03 04:51,1.0,0,0.0,-74.2062,44.3853
CYOW,2006-02-03 06:18,3.7,0,2.7,-75.6692,45.3225
AUG,2006-02-03 09:13,1.05,0,0.67,-69.8,44.32
MPV,2006-02-03 13:51,1.0,0,0.0,-72.5623,44.2035
MLT,2006-02-03 18:39,6.62,1,6.85,-68.6856,45.6478
MWN,2006-02-03 18:58,1.9,0,1.02,-71.3035,44.2708
HUL,2006-02-03 20:00,4.55,0,5.08,-67.7921,46.1231
CAR,2006-02-03 21:43,2.9,0,2.33,-68.02,46.87
FVE,2006-02-03 22:51,2.45,0,4.03,-68.3127,47.2855
