station,start_time,zr_hours,label,duration,lon,lat
DXR,2006-01-03 07:21,1.82,0,18.77,-73.48,41.37
BGM,2006-01-03 10:53,3.0,0,2.0,-75.9797,42.2086
CDW,2006-01-03 11:29,4.55,0,9.4,-74.2831,40.8764
HVN,2006-01-03 12:06,6.13,1,8.78,-72.8868,41.2638
AVP,2006-01-03 13:46,1.55,0,1.13,-75.7227,41.3335
HTO,2006-01-03 18:45,2.0,0,1.0,-72.25,40.96
