station,start_time,zr_hours,label,duration,lon,lat
EAU,2006-03-13 02:56,0.38,0,0.12,-91.4843,44.8658
GLR,2006-03-13 08:30,2.38,0,2.15,-84.7036,45.0135
PLN,2006-03-13 09:46,0.43,0,0.13,-84.7967,45.5709
RHI,2006-03-13 10:43,0.57,0,0.17,-89.4675,45.6312
IMT,2006-03-13 11:54,1.32,0,2.32,-88.1146,45.8184
AUW,2006-03-13 13:21,2.12,0,2.33,-89.6266,44.9262
MFI,2006-03-13 13:42,0.68,0,0.43,-90.1893,44.6369
