station,start_time,zr_hours,label,duration,lon,lat
MBG,2006-01-08 10:13,0.7,0,0.0,-100.4078,45.5464
HEI,2006-01-08 12:06,1.23,0,1.08,-102.656,46.0149
ABR,2006-01-08 12:31,2.4,0,2.37,-98.42,45.45
PIR,2006-01-08 13:22,0.45,0,0.0,-100.286,44.3827
JMS,2006-01-08 17:21,0.4,0,0.0,-98.68,46.93
