station,start_time,zr_hours,label,duration,lon,lat
MSS,1980-12-13 02:00,1.0,0,0.0,-74.8456,44.9358
RME,1980-12-13 03:00,1.0,0,0.0,-75.3953,43.2239
UCA,1980-12-13 03:00,1.0,0,0.0,-75.3839,43.1451
SLK,1980-12-13 04:00,7.0,1,0.0,-74.2062,44.3853
PWM,1980-12-13 13:31,0.48,0,0.0,-70.3044,43.6424
