station,start_time,zr_hours,label,duration,lon,lat
STL,1988-02-02 07:23,7.12,1,39.62,-90.3734,38.7524
SGF,1988-02-02 10:00,7.78,1,39.0,-93.3897,37.2397
DAY,1988-02-02 10:18,14.48,1,40.88,-84.2186,39.9061
CMH,1988-02-02 14:15,6.15,1,39.75,-82.8808,39.9914
HUF,1988-02-02 15:00,6.0,1,33.0,-87.3076,39.4515
LCK,1988-02-02 17:17,6.37,1,37.03,-82.9278,39.8138
