station,start_time,zr_hours,label,duration,lon,lat
RSP,2007-12-26 22:13,1.13,0,0.68,-77.468,39.645
TEB,2007-12-26 23:42,0.3,0,0.15,-74.0562,40.859
VPZ,2007-12-27 09:51,1.47,0,1.28,-87.0071,41.45399999999999
GRR,2007-12-27 11:53,1.0,0,0.0,-85.52,42.88
CYXU,2007-12-27 12:07,0.3,0,0.13,-81.1539,43.0356
CYTR,2007-12-27 14:16,1.82,0,1.73,-77.5281,44.1189
FIG,2007-12-27 14:41,0.22,0,0.0,-78.4117,41.0467
CYGK,2007-12-27 14:44,1.7,0,1.27,-76.5969,44.2253
MPO,2007-12-27 15:53,0.23,0,0.0,-75.3794,41.1389
