station,start_time,zr_hours,label,duration,lon,lat
CYRL,2008-01-06 02:40,1.02,0,9.45,-93.7931,51.0669
CYWG,2008-01-06 03:00,3.83,0,3.0,-97.2333,49.9167
CYIV,2008-01-06 04:12,0.67,0,0.0,-94.6537,53.8571
CYNE,2008-01-06 04:27,0.9,0,0.85,-97.8442,53.9583
CYXL,2008-01-06 04:42,0.6,0,0.3,-91.9053,50.1139
CYTL,2008-01-06 09:05,1.88,0,1.72,-89.8956,53.8156
CYQK,2008-01-06 11:42,0.5,0,0.3,-94.3653,49.7903
