station,start_time,zr_hours,label,duration,lon,lat
HFD,1988-12-23 18:00,2.0,0,2.0,-72.6494,41.7367
CEF,1988-12-23 19:00,0.17,0,0.0,-72.5348,42.193999999999996
BDL,1988-12-23 19:30,1.5,0,0.73,-72.6825,41.9381
ORH,1988-12-23 20:00,5.0,0,8.0,-71.8757,42.2673
BAF,1988-12-23 21:00,5.0,0,4.0,-72.7161,42.1578
