station,start_time,zr_hours,label,duration,lon,lat
CVG,1989-02-13 10:14,1.08,0,0.77,-84.6717,39.0431
LUK,1989-02-13 11:00,0.5,0,0.0,-84.4186,39.1033
JKL,1989-02-13 11:00,0.6,0,0.0,-83.3144,37.5914
FFO,1989-02-13 11:50,0.17,0,0.0,-84.0483,39.8261
DAY,1989-02-13 12:09,0.85,0,0.3,-84.2186,39.9061
LCK,1989-02-13 12:49,0.73,0,0.18,-82.9278,39.8138
FWA,1989-02-13 13:00,1.0,0,0.0,-85.1871,40.978
CMH,1989-02-13 13:04,0.93,0,0.33,-82.8808,39.9914
