station,start_time,zr_hours,label,duration,lon,lat
JHW,2002-03-26 11:48,4.03,0,2.17,-79.258,42.1534
BFD,2002-03-26 12:08,3.08,0,2.75,-78.6401,41.8031
ELZ,2002-03-26 12:56,3.0,0,2.0,-77.99,42.11
IAG,2002-03-26 13:53,5.0,0,4.0,-78.9462,43.1073
BUF,2002-03-26 13:54,5.0,0,4.0,-78.7358,42.9408
