station,start_time,zr_hours,label,duration,lon,lat
SSC,2002-01-03 01:46,7.15,1,6.15,-80.47,33.97
FAY,2002-01-03 01:53,8.0,1,15.0,-78.8803,34.9912
EWN,2002-01-03 01:54,2.0,0,19.0,-77.0472,35.0675
ISO,2002-01-03 02:50,9.0,1,0.0,-77.61,35.33
GSB,2002-01-03 02:55,10.0,1,10.0,-77.9606,35.3394
MEB,2002-01-03 03:52,6.0,1,12.0,-79.3658,34.7919
