station,start_time,zr_hours,label,duration,lon,lat
VTN,1997-11-08 22:52,4.0,0,4.0,-100.5489,42.8567
SNY,1997-11-09 05:53,2.0,0,1.0,-102.9847,41.1014
CBK,1997-11-09 05:56,5.0,0,5.0,-101.0466,39.4274
GLD,1997-11-09 05:56,5.0,0,5.0,-101.6933,39.3672
SYF,1997-11-09 05:56,5.0,0,5.0,-101.7959,39.7611
