station,start_time,zr_hours,label,duration,lon,lat
ATW,1998-03-02 21:45,3.0,0,3.0,-88.5191,44.2581
DLH,1998-03-03 02:55,1.0,0,0.0,-92.1936,46.8421
GFK,1998-03-03 03:53,2.0,0,1.0,-97.1761,47.9492
FAR,1998-03-03 04:53,3.0,0,6.0,-96.8111,46.9253
STC,1998-03-03 10:53,2.0,0,2.0,-94.0513,45.5433
AXN,1998-03-03 13:42,0.65,0,1.72,-95.3947,45.8663
