station,start_time,zr_hours,label,duration,lon,lat
GLD,1998-01-06 06:56,6.0,1,5.0,-101.6933,39.3672
SYF,1998-01-06 06:56,6.0,1,5.0,-101.7959,39.7611
CBK,1998-01-06 06:56,6.0,1,5.0,-101.0466,39.4274
GCK,1998-01-06 07:54,6.0,1,5.0,-100.7244,37.9275
DDC,1998-01-06 08:56,4.0,0,4.0,-99.9654,37.7631
RSL,1998-01-06 18:53,2.0,0,3.0,-98.8118,38.8721
