station,start_time,zr_hours,label,duration,lon,lat
ART,1984-03-18 23:00,7.0,1,6.0,-76.0262,43.9888
BTV,1984-03-18 23:00,13.0,1,12.0,-73.15,44.47
MPV,1984-03-19 00:00,8.13,1,12.0,-72.5623,44.2035
MSS,1984-03-19 00:00,13.83,1,25.0,-74.8456,44.9358
PBG,1984-03-19 00:00,12.0,1,11.0,-73.4624,44.6382
OGS,1984-03-19 00:00,2.0,0,0.0,-75.4655,44.6819
SLK,1984-03-19 00:00,11.0,1,2.0,-74.2062,44.3853
GFL,1984-03-19 00:00,9.0,1,8.0,-73.6103,43.3412
CON,1984-03-19 01:00,3.5,0,4.0,-71.5011,43.1953
