station,start_time,zr_hours,label,duration,lon,lat
GFL,1984-01-24 15:00,2.27,0,2.0,-73.6103,43.3412
PBG,1984-01-24 15:00,4.0,0,3.0,-73.4624,44.6382
LCI,1984-01-24 15:46,3.23,0,1.98,-71.4215,43.5735
LEB,1984-01-24 16:00,4.0,0,3.0,-72.3042,43.6261
PWM,1984-01-24 16:00,3.98,0,4.0,-70.3044,43.6424
