station,start_time,zr_hours,label,duration,lon,lat
IAG,1984-01-24 07:00,3.0,0,2.0,-78.9462,43.1073
BUF,1984-01-24 07:00,2.57,0,2.0,-78.7358,42.9408
ELM,1984-01-24 08:00,4.2,0,4.0,-76.8994,42.1571
ROC,1984-01-24 08:00,3.67,0,3.0,-77.6767,43.1167
SYR,1984-01-24 09:00,2.0,0,1.0,-76.1063,43.1112
