station,start_time,zr_hours,label,duration,lon,lat
RME,1990-02-04 08:00,1.5,0,1.0,-75.3953,43.2239
CEF,1990-02-04 08:00,6.12,1,8.0,-72.5348,42.193999999999996
UCA,1990-02-04 08:00,2.0,0,1.0,-75.3839,43.1451
ALB,1990-02-04 09:00,3.0,0,2.0,-73.8036,42.7576
BTV,1990-02-04 09:00,0.47,0,1.0,-73.15,44.47
