station,start_time,zr_hours,label,duration,lon,lat
HON,1996-11-19 16:55,2.0,0,8.0,-98.2286,44.3852
FSD,1996-11-20 03:56,3.0,0,16.0,-96.7536,43.5769
DIK,1996-11-20 05:50,5.98,0,7.0,-102.8019,46.7973
PIR,1996-11-20 06:47,0.97,0,0.0,-100.286,44.3827
BIS,1996-11-20 08:55,6.0,1,5.0,-100.7458,46.7727
ABR,1996-11-20 10:56,4.0,0,8.0,-98.42,45.45
