station,start_time,zr_hours,label,duration,lon,lat
CYOW,1997-02-21 05:00,7.05,1,28.0,-75.6692,45.3225
MSS,1997-02-21 05:50,4.0,0,6.0,-74.8456,44.9358
BGR,1997-02-21 11:45,1.0,0,0.0,-68.8281,44.8074
OLD,1997-02-21 11:45,1.0,0,0.0,-68.6743,44.9525
MWN,1997-02-21 11:46,1.98,0,1.95,-71.3035,44.2708
AUG,1997-02-21 11:54,0.9,0,0.0,-69.8,44.32
