station,start_time,zr_hours,label,duration,lon,lat
JCT,1997-01-06 23:53,4.0,0,27.0,-99.7664,30.5108
ACT,1997-01-07 03:53,23.0,1,37.0,-97.2283,31.618000000000002
GRK,1997-01-07 05:41,5.48,0,34.23,-97.83,31.07
HLR,1997-01-07 14:24,5.23,0,28.52,-97.7145,31.1387
BAD,1997-01-07 15:06,1.02,0,1.12,-93.6626,32.5019
AUS,1997-01-07 15:53,1.0,0,0.0,-97.6699,30.1945
GGG,1997-01-07 21:47,2.0,0,1.0,-94.7115,32.384
