station,start_time,zr_hours,label,duration,lon,lat
ISN,1995-11-25 17:00,1.6,0,2.0,-103.6366,48.1738
ABR,1995-11-25 18:09,0.85,0,0.0,-98.42,45.45
BIS,1995-11-25 19:00,1.1,0,1.0,-100.7458,46.7727
RWF,1995-11-25 23:00,0.62,0,0.0,-95.08200000000001,44.5469
JMS,1995-11-25 23:00,0.57,0,1.0,-98.68,46.93
RST,1995-11-26 02:00,1.28,0,26.0,-92.4916,43.9041
LSE,1995-11-26 03:00,0.4,0,0.0,-91.25,43.88
