station,start_time,zr_hours,label,duration,lon,lat
GTB,1995-12-03 16:00,4.1,0,4.0,-75.7195,44.0556
OGS,1995-12-03 17:00,3.0,0,4.0,-75.4655,44.6819
MPV,1995-12-03 19:00,0.12,0,0.0,-72.5623,44.2035
CON,1995-12-03 20:52,1.47,0,3.13,-71.5011,43.1953
MHT,1995-12-03 21:00,0.25,0,0.0,-71.4358,42.9328
ASH,1995-12-03 22:00,1.0,0,0.0,-71.5148,42.7818
PSM,1995-12-04 01:00,1.75,0,1.0,-70.8233,43.0779
NHZ,1995-12-04 01:50,0.92,0,0.17,-69.9386,43.8922
