station,start_time,zr_hours,label,duration,lon,lat
RWF,1996-03-24 19:00,1.0,0,0.0,-95.08200000000001,44.5469
OFF,1996-03-25 00:00,1.0,0,0.0,-95.9125,41.1183
RHI,1996-03-25 01:00,10.0,1,2.0,-89.4675,45.6312
OMA,1996-03-25 02:00,2.0,0,1.0,-95.8992,41.3103
MCW,1996-03-25 06:00,2.0,0,1.0,-93.3261,43.1544
ALO,1996-03-25 10:00,1.0,0,0.0,-92.4013,42.5544
