station,start_time,zr_hours,label,duration,lon,lat
MSN,1996-01-09 07:00,1.0,0,0.0,-89.3453,43.1406
RFD,1996-01-09 07:00,2.0,0,1.0,-89.09299999999999,42.1927
MDW,1996-01-09 09:00,3.0,0,1.0,-87.7524,41.786
ORD,1996-01-09 09:00,2.0,0,1.0,-87.9319,41.9875
IND,1996-01-09 20:00,4.0,0,3.0,-86.3048,39.7084
JKL,1996-01-10 02:28,3.53,0,2.78,-83.3144,37.5914
CAK,1996-01-10 02:59,0.02,0,0.0,-81.4422,40.9161
CRW,1996-01-10 04:00,3.23,0,3.0,-81.59,38.3794
