station,start_time,zr_hours,label,duration,lon,lat
DSM,1987-12-27 10:00,4.47,0,12.0,-93.6531,41.534
OTM,1987-12-27 11:00,3.97,0,16.0,-92.4446,41.1008
BRL,1987-12-27 11:00,5.13,0,3.0,-91.1255,40.7729
UIN,1987-12-27 12:00,0.92,0,1.0,-91.1946,39.9428
IRK,1987-12-27 12:00,2.0,0,1.0,-92.5433,40.0972
