station,start_time,zr_hours,label,duration,lon,lat
SLN,2015-11-26 22:36,11.9,1,85.28,-97.6522,38.791
FRI,2015-11-26 23:47,27.13,1,64.18,-96.7645,39.0526
FNB,2015-11-26 23:51,7.72,1,19.03,-95.59200000000001,40.0788
MHK,2015-11-26 23:56,17.03,1,54.93,-96.6778,39.1353
RSL,2015-11-27 00:45,0.78,0,10.13,-98.8118,38.8721
AAO,2015-11-27 01:04,13.3,1,62.83,-97.22,37.75
EMP,2015-11-27 01:44,23.27,1,59.15,-96.1897,38.3306
IAB,2015-11-27 01:58,20.85,1,56.0,-97.2673,37.623000000000005
