station,start_time,zr_hours,label,duration,lon,lat
ELM,2016-02-16 06:14,4.83,0,4.95,-76.8994,42.1571
PEO,2016-02-16 07:20,4.85,0,5.72,-77.0529,42.6371
ITH,2016-02-16 07:25,1.17,0,23.52,-76.4584,42.49100000000001
RME,2016-02-16 07:46,2.03,0,1.68,-75.3953,43.2239
ELZ,2016-02-16 07:48,4.38,0,4.13,-77.99,42.11
BFD,2016-02-16 07:57,3.17,0,3.22,-78.6401,41.8031
SYR,2016-02-16 08:30,4.92,0,4.4,-76.1063,43.1112
