station,start_time,zr_hours,label,duration,lon,lat
GSH,2007-01-14 09:00,0.88,0,0.0,-85.7922,41.5272
FWA,2007-01-14 09:36,4.05,0,4.22,-85.1871,40.978
SBN,2007-01-14 09:39,11.22,1,24.25,-86.3164,41.7072
GRR,2007-01-14 09:56,7.0,1,22.0,-85.52,42.88
DPA,2007-01-14 10:00,7.08,1,18.87,-88.2486,41.9078
MDW,2007-01-14 10:51,1.17,0,1.13,-87.7524,41.786
TOL,2007-01-14 10:52,4.0,0,18.0,-83.8014,41.5886
ADG,2007-01-14 10:53,15.0,1,24.0,-84.0773,41.8677
