station,start_time,zr_hours,label,duration,lon,lat
RDR,1984-02-15 06:00,3.0,0,7.0,-97.4012,47.9611
GFK,1984-02-15 07:00,4.0,0,6.0,-97.1761,47.9492
DVL,1984-02-15 11:00,1.0,0,0.0,-98.9083,48.1146
HIB,1984-02-15 12:00,0.35,0,0.0,-92.839,47.3866
INL,1984-02-15 16:00,2.0,0,1.0,-93.3956,48.5595
