station,start_time,zr_hours,label,duration,lon,lat
OFK,1982-12-24 04:00,1.82,0,2.0,-97.4351,41.9855
SUX,1982-12-24 05:00,0.63,0,1.0,-96.3795,42.3917
FSD,1982-12-24 07:25,5.25,0,18.58,-96.7536,43.5769
OIN,1982-12-24 13:00,3.0,0,5.0,-100.5393,39.8339
MCK,1982-12-24 13:00,2.58,0,5.0,-100.5921,40.2063
HON,1982-12-24 13:16,0.15,0,0.0,-98.2286,44.3852
MKT,1982-12-24 14:00,0.07,0,0.0,-93.92,44.22
EAR,1982-12-25 01:00,12.0,1,0.0,-99.0068,40.727
