station,start_time,zr_hours,label,duration,lon,lat
GSP,1982-12-19 11:29,1.2,0,0.52,-82.2239,34.8847
CLT,1982-12-19 13:00,2.42,0,3.0,-80.9543,35.2226
HKY,1982-12-19 13:00,0.3,0,0.0,-81.3896,35.7412
CAE,1982-12-19 13:06,1.5,0,0.9,-81.1181,33.9419
INT,1982-12-19 14:00,1.0,0,0.0,-80.222,36.1337
GSO,1982-12-19 16:00,1.0,0,0.0,-79.9436,36.0975
