station,start_time,zr_hours,label,duration,lon,lat
CAR,1983-03-02 10:00,5.95,0,7.0,-68.02,46.87
GFL,1983-03-02 12:00,4.0,0,3.0,-73.6103,43.3412
VSF,1983-03-02 13:00,5.58,0,0.0,-72.5173,43.3436
BTV,1983-03-02 13:00,4.0,0,3.0,-73.15,44.47
HUL,1983-03-02 14:00,1.0,0,0.0,-67.7921,46.1231
RUT,1983-03-02 14:45,5.0,0,2.08,-72.95,43.53
MPV,1983-03-02 21:00,1.0,0,0.0,-72.5623,44.2035
