station,start_time,zr_hours,label,duration,lon,lat
TCL,1983-02-05 07:00,1.0,0,0.0,-87.6161,33.2119
TXK,1983-02-05 08:00,3.0,0,2.0,-93.991,33.4537
BHM,1983-02-05 12:00,1.0,0,0.0,-86.7449,33.5655
MEM,1983-02-05 13:00,0.63,0,1.0,-89.985,35.0611
LIT,1983-02-05 14:00,6.07,1,6.0,-92.2357,34.7273
LRF,1983-02-05 16:00,3.0,0,2.0,-92.1465,34.9168
LZK,1983-02-05 18:00,6.0,1,0.0,-92.2594,34.835
