station,start_time,zr_hours,label,duration,lon,lat
HTS,2005-12-03 22:51,11.47,1,12.0,-82.555,38.365
MGY,2005-12-03 23:22,6.25,1,9.52,-84.2249,39.589
PKB,2005-12-04 00:53,6.67,1,8.0,-81.4392,39.3451
CKB,2005-12-04 01:53,7.2,1,8.57,-80.2281,39.2966
MGW,2005-12-04 02:17,6.28,1,17.6,-79.9163,39.6429
