station,start_time,zr_hours,label,duration,lon,lat
CMH,2018-01-24 15:58,0.87,0,0.78,-82.8808,39.9914
OSU,2018-01-24 16:15,0.3,0,0.25,-83.08,40.08
MGY,2018-01-24 16:34,0.03,0,0.02,-84.2249,39.589
LHQ,2018-01-24 17:11,0.03,0,0.0,-82.6571,39.7556
ZZV,2018-01-24 17:15,0.17,0,0.08,-81.8921,39.9444
ILN,2018-01-24 17:29,0.58,0,0.6,-83.8217,39.4203
AOH,2018-01-24 18:20,0.33,0,0.25,-84.0267,40.7069
HAO,2018-01-24 18:25,0.08,0,0.03,-84.5219,39.3638
