station,start_time,zr_hours,label,duration,lon,lat
BWI,2018-03-20 17:25,8.15,1,19.17,-76.6683,39.1754
ILG,2018-03-20 17:43,11.83,1,19.85,-75.6008,39.6728
WRI,2018-03-20 17:57,6.25,1,19.98,-74.5917,40.0156
PHL,2018-03-20 18:05,4.6,0,19.83,-75.2311,39.8683
VAY,2018-03-20 18:40,1.7,0,18.92,-74.8457,39.9429
ACY,2018-03-20 19:20,2.7,0,5.0,-74.5772,39.4576
MIV,2018-03-20 19:25,8.23,1,9.75,-75.0783,39.3661
