station,start_time,zr_hours,label,duration,lon,lat
OTM,2018-01-11 14:25,1.02,0,1.42,-92.4446,41.1008
IOW,2018-01-11 16:00,0.62,0,0.58,-91.5445,41.6394
CID,2018-01-11 16:10,1.32,0,1.27,-91.7246,41.8829
IRK,2018-01-11 16:40,1.32,0,4.0,-92.5433,40.0972
BRL,2018-01-11 17:05,2.32,0,3.67,-91.1255,40.7729
DBQ,2018-01-11 17:30,1.47,0,2.58,-90.7091,42.3984
DVN,2018-01-11 17:35,2.37,0,3.25,-90.5948,41.6133
MLI,2018-01-11 17:50,1.97,0,2.75,-90.5075,41.4485
VOK,2018-01-11 17:56,1.0,0,0.0,-90.2532,43.9392
