station,start_time,zr_hours,label,duration,lon,lat
LHQ,2005-12-15 09:09,3.02,0,2.73,-82.6571,39.7556
CLE,2005-12-15 09:18,0.38,0,0.3,-81.8528,41.405
DET,2005-12-15 09:53,1.1,0,2.13,-83.0099,42.4092
YIP,2005-12-15 09:53,1.33,0,1.12,-83.5304,42.2379
ZZV,2005-12-15 10:01,2.87,0,2.65,-81.8921,39.9444
