station,start_time,zr_hours,label,duration,lon,lat
M19,2006-02-18 06:29,0.45,0,0.0,-91.1764,35.6377
AWM,2006-02-18 06:53,1.78,0,5.0,-90.2344,35.1351
MRC,2006-02-18 07:17,1.3,0,0.6,-87.1791,35.5544
HKA,2006-02-18 07:35,0.93,0,1.47,-89.83,35.94
NQA,2006-02-18 07:50,0.33,0,0.0,-89.8703,35.3567
MEM,2006-02-18 07:53,1.0,0,0.0,-89.985,35.0611
MKL,2006-02-18 08:08,1.32,0,0.75,-88.9167,35.5931
