station,start_time,zr_hours,label,duration,lon,lat
MWL,2006-02-18 13:53,3.0,0,0.0,-98.0602,32.7816
GKY,2006-02-18 14:53,2.0,0,0.0,-97.0943,32.6639
FTW,2006-02-18 14:53,3.0,0,2.0,-97.3624,32.8198
RBD,2006-02-18 14:53,9.0,1,20.0,-96.87,32.68
NFW,2006-02-18 14:55,3.0,0,2.0,-97.4365,32.781
DAL,2006-02-18 15:53,1.0,0,0.0,-96.8518,32.8471
