station,start_time,zr_hours,label,duration,lon,lat
PWA,2006-02-18 00:53,2.8,0,5.0,-97.6471,35.5342
FSI,2006-02-18 01:05,2.47,0,1.83,-98.4033,34.6449
OKC,2006-02-18 01:34,2.2,0,2.3,-97.6006,35.3889
TUL,2006-02-18 01:43,1.65,0,1.43,-95.8881,36.1984
LAW,2006-02-18 01:46,0.97,0,3.75,-98.4166,34.5677
