station,start_time,zr_hours,label,duration,lon,lat
NRN,1991-11-29 15:00,1.0,0,0.0,-99.8947,39.8504
HSI,1991-11-29 15:00,3.0,0,4.0,-98.4279,40.6052
GRI,1991-11-29 15:00,4.83,0,6.0,-98.3096,40.9675
HLC,1991-11-29 15:00,0.13,0,0.0,-99.8297,39.3756
PHG,1991-11-29 15:00,1.0,0,0.0,-99.3171,39.7358
