station,start_time,zr_hours,label,duration,lon,lat
IEN,2009-03-23 17:12,0.5,0,0.67,-102.51100000000001,43.0225
DIK,2009-03-23 20:11,1.63,0,1.87,-102.8019,46.7973
BIS,2009-03-23 21:09,1.63,0,1.72,-100.7458,46.7727
PHP,2009-03-23 22:37,0.52,0,0.48,-101.6,44.05
VTN,2009-03-24 00:12,0.25,0,0.12,-100.5489,42.8567
MOT,2009-03-24 05:05,0.37,0,0.0,-101.2803,48.2594
ICR,2009-03-24 09:21,3.9,0,7.13,-99.8422,43.3903
CYPG,2009-03-24 11:00,0.08,0,0.0,-98.2739,49.9031
PIR,2009-03-24 12:39,1.98,0,2.23,-100.286,44.3827
