station,start_time,zr_hours,label,duration,lon,lat
MBS,1985-03-04 10:00,5.5,0,11.0,-84.08,43.53
DTW,1985-03-04 10:00,1.95,0,2.0,-83.33,42.23
DET,1985-03-04 10:00,3.17,0,3.0,-83.0099,42.4092
IKW,1985-03-04 10:00,7.0,1,11.0,-84.2613,43.6629
MKG,1985-03-04 10:00,5.95,0,7.0,-86.2367,43.1711
LAN,1985-03-04 10:00,6.02,1,7.0,-84.58,42.78
MTC,1985-03-04 11:00,4.0,0,3.0,-82.8355,42.6083
