station,start_time,zr_hours,label,duration,lon,lat
MKL,1985-02-05 00:00,6.0,1,6.0,-88.9167,35.5931
BYH,1985-02-05 01:00,5.0,0,4.0,-89.9439,35.9643
NQA,1985-02-05 01:07,1.88,0,0.88,-89.8703,35.3567
MEM,1985-02-05 02:00,2.42,0,3.0,-89.985,35.0611
UCY,1985-02-05 02:22,9.63,1,1.63,-88.9857,36.3797
DYR,1985-02-05 02:22,9.63,1,1.63,-89.4066,35.998000000000005
