station,start_time,zr_hours,label,duration,lon,lat
LIT,1989-03-05 14:00,0.58,0,0.0,-92.2357,34.7273
PAH,1989-03-05 14:21,11.37,1,21.65,-88.7744,37.0563
CEY,1989-03-05 14:21,11.37,1,21.65,-88.3728,36.6646
JBR,1989-03-05 14:29,1.13,0,0.52,-90.6464,35.8317
BYH,1989-03-05 14:41,1.75,0,7.9,-89.9439,35.9643
DYR,1989-03-05 15:00,0.58,0,0.0,-89.4066,35.998000000000005
UCY,1989-03-05 15:00,0.58,0,0.0,-88.9857,36.3797
