station,start_time,zr_hours,label,duration,lon,lat
TOP,1990-02-15 01:00,3.92,0,16.0,-95.62,39.07
FOE,1990-02-15 02:00,7.0,1,16.0,-95.6636,38.9509
MCI,1990-02-15 03:00,3.38,0,13.0,-94.7139,39.2976
MKC,1990-02-15 03:00,8.0,1,14.0,-94.59299999999999,39.123000000000005
FLV,1990-02-15 03:00,6.0,1,13.0,-94.9147,39.3683
