station,start_time,zr_hours,label,duration,lon,lat
CYGV,2019-12-31 21:24,0.55,0,3.97,-63.6114,50.2819
CYZV,2019-12-31 22:03,0.4,0,0.0,-66.2656,50.2233
CYYG,2019-12-31 23:54,3.0,0,2.1,-63.1286,46.2886
CYCX,2020-01-01 00:25,0.58,0,3.77,-66.4367,45.8377
CYQM,2020-01-01 01:00,1.0,0,0.0,-64.6878,46.1039
CYFC,2020-01-01 01:10,1.55,0,2.62,-66.5278,45.8722
CYPD,2020-01-01 01:16,0.5,0,0.3,-61.3681,45.6567
PQI,2020-01-01 03:10,0.25,0,0.17,-68.0448,46.68899999999999
CZBF,2020-01-01 08:51,0.23,0,0.22,-65.7483,47.6292
