station,start_time,zr_hours,label,duration,lon,lat
CYMT,2019-11-28 12:45,0.95,0,0.87,-74.5281,49.7719
CYMO,2019-11-28 14:27,0.25,0,0.23,-80.6141,51.2891
CYGQ,2019-11-28 15:31,0.22,0,0.0,-86.9306,49.7828
CYLD,2019-11-28 15:51,0.5,0,0.15,-83.3467,47.82
CYYU,2019-11-28 20:09,0.12,0,0.0,-82.4667,49.4167
CYNM,2019-11-28 21:19,1.08,0,1.82,-77.8028,49.7617
