station,start_time,zr_hours,label,duration,lon,lat
CYOW,2012-12-10 06:47,7.68,1,9.22,-75.6692,45.3225
AUG,2012-12-10 10:12,10.72,1,18.13,-69.8,44.32
CYMX,2012-12-10 10:50,10.17,1,10.17,-74.0387,45.6795
MLT,2012-12-10 16:06,7.97,1,12.78,-68.6856,45.6478
CYCX,2012-12-10 18:21,9.8,1,11.65,-66.4367,45.8377
CAR,2012-12-10 20:03,7.32,1,9.03,-68.02,46.87
