station,start_time,zr_hours,label,duration,lon,lat
ODO,2013-12-29 16:48,0.08,0,0.0,-102.3867,31.9206
DYS,2013-12-29 17:13,2.23,0,2.17,-99.855,32.421
ABI,2013-12-29 18:19,2.9,0,4.03,-99.6821,32.4106
MWL,2013-12-29 20:42,1.73,0,1.63,-98.0602,32.7816
SJT,2013-12-29 21:29,0.5,0,0.37,-100.495,31.3517
FTW,2013-12-30 00:07,0.7,0,0.0,-97.3624,32.8198
GKY,2013-12-30 01:03,0.58,0,0.12,-97.0943,32.6639
BMQ,2013-12-30 04:08,0.63,0,0.0,-98.2386,30.7389
