station,start_time,zr_hours,label,duration,lon,lat
CBK,1993-03-17 16:00,8.0,1,21.0,-101.0466,39.4274
SYF,1993-03-17 16:00,8.0,1,21.0,-101.7959,39.7611
EMP,1993-03-18 13:00,6.62,1,15.0,-96.1897,38.3306
CNU,1993-03-18 13:00,7.5,1,15.0,-95.4842,37.6703
HRO,1993-03-18 16:13,11.88,1,18.78,-93.1547,36.2615
TOP,1993-03-18 17:00,12.08,1,19.0,-95.62,39.07
GRI,1993-03-18 20:00,6.8,1,10.0,-98.3096,40.9675
SGF,1993-03-18 21:00,9.28,1,12.0,-93.3897,37.2397
