station,start_time,zr_hours,label,duration,lon,lat
LYH,1985-03-22 12:00,1.6,0,1.0,-79.2067,37.3208
CXY,1985-03-22 21:00,2.0,0,1.0,-76.8515,40.2171
JST,1985-03-22 22:00,11.3,1,6.0,-78.8339,40.3161
DUJ,1985-03-23 01:00,7.0,1,10.0,-78.9,41.18
AOO,1985-03-23 01:00,7.0,1,11.0,-78.32,40.2964
BFD,1985-03-23 05:20,6.17,1,5.67,-78.6401,41.8031
