station,start_time,zr_hours,label,duration,lon,lat
CYOW,1993-02-12 23:28,3.72,0,5.53,-75.6692,45.3225
SLK,1993-02-13 00:00,1.0,0,0.0,-74.2062,44.3853
MSS,1993-02-13 00:00,3.55,0,5.0,-74.8456,44.9358
UCA,1993-02-13 01:00,2.0,0,3.0,-75.3839,43.1451
RME,1993-02-13 01:00,1.3,0,3.0,-75.3953,43.2239
