station,start_time,zr_hours,label,duration,lon,lat
CAK,1993-01-03 02:00,1.85,0,7.0,-81.4422,40.9161
CLE,1993-01-03 02:00,2.42,0,6.0,-81.8528,41.405
FDY,1993-01-03 02:23,1.62,0,0.62,-83.6686,41.0136
LNN,1993-01-03 03:00,1.0,0,0.0,-81.3898,41.684
CGF,1993-01-03 03:00,1.0,0,0.0,-81.4864,41.5651
YNG,1993-01-03 04:00,2.65,0,6.0,-80.6739,41.2544
