station,start_time,zr_hours,label,duration,lon,lat
LWC,2001-02-09 02:12,6.13,1,6.25,-95.2115,39.0077
MCI,2001-02-09 02:38,9.25,1,9.25,-94.7139,39.2976
FLV,2001-02-09 02:38,9.25,1,9.25,-94.9147,39.3683
ANJ,2001-02-09 03:55,8.0,1,12.0,-84.3684,46.4792
CYOW,2001-02-09 10:00,10.12,1,11.0,-75.6692,45.3225
