station,start_time,zr_hours,label,duration,lon,lat
LWD,1985-11-15 12:00,1.0,0,0.0,-93.9005,40.6306
OLU,1985-11-15 15:00,1.0,0,0.0,-97.3426,41.448
FRM,1985-11-15 20:30,4.5,0,0.5,-94.4156,43.6439
RST,1985-11-16 03:00,2.58,0,2.0,-92.4916,43.9041
EAU,1985-11-16 06:00,1.38,0,1.0,-91.4843,44.8658
