station,start_time,zr_hours,label,duration,lon,lat
TBN,1985-11-27 13:00,1.0,0,0.0,-92.1407,37.7416
VIH,1985-11-27 13:00,8.0,1,7.0,-91.77,38.13
SZL,1985-11-27 15:00,3.0,0,3.0,-93.54799999999999,38.7303
MKC,1985-11-27 18:00,0.12,0,0.0,-94.59299999999999,39.123000000000005
UIN,1985-11-27 18:00,4.73,0,4.0,-91.1946,39.9428
