station,start_time,zr_hours,label,duration,lon,lat
CYYT,2010-02-16 15:07,8.45,1,29.88,-52.7428,47.6222
CWWU,2010-02-16 16:00,0.77,0,0.0,-52.9803,47.5158
CYQX,2010-02-16 20:23,5.22,0,39.33,-54.5757,48.9457
CYMH,2010-02-16 20:56,1.18,0,1.15,-55.8325,52.3036
CWCA,2010-02-16 22:00,0.47,0,0.0,-57.035,53.7083
CYBX,2010-02-16 22:27,2.2,0,1.55,-57.1853,51.4436
CYAY,2010-02-17 01:20,0.18,0,0.12,-56.0856,51.3906
CYYR,2010-02-17 03:54,2.4,0,2.1,-60.4258,53.3192
