station,start_time,zr_hours,label,duration,lon,lat
ANJ,2019-12-29 07:25,10.12,1,29.58,-84.3684,46.4792
MSS,2019-12-30 01:25,12.83,1,17.17,-74.8456,44.9358
VSF,2019-12-30 01:54,6.32,1,16.43,-72.5173,43.3436
SLK,2019-12-30 02:30,13.22,1,19.83,-74.2062,44.3853
LEB,2019-12-30 02:40,7.45,1,18.17,-72.3042,43.6261
ORH,2019-12-30 07:45,11.63,1,27.75,-71.8757,42.2673
FIT,2019-12-30 11:55,6.9,1,23.95,-71.7558,42.5519
BAF,2019-12-31 01:09,7.77,1,8.77,-72.7161,42.1578
CEF,2019-12-31 01:50,6.1,1,25.45,-72.5348,42.193999999999996
