station,start_time,zr_hours,label,duration,lon,lat
RSP,2013-11-26 13:41,15.83,1,18.6,-77.468,39.645
RYT,2013-11-26 15:25,11.18,1,11.47,-77.43,39.734
HGR,2013-11-26 15:37,4.45,0,4.57,-77.7297,39.7078
THV,2013-11-26 15:53,2.3,0,2.0,-76.873,39.917
LNS,2013-11-26 15:53,2.63,0,2.0,-76.2944,40.1203
MDT,2013-11-26 15:56,1.97,0,4.0,-76.7633,40.1936
CXY,2013-11-26 16:32,2.93,0,2.4,-76.8515,40.2171
MUI,2013-11-26 16:35,5.07,0,7.58,-76.5693,40.4348
AOO,2013-11-26 17:08,11.55,1,12.3,-78.32,40.2964
