station,start_time,zr_hours,label,duration,lon,lat
SET,2014-02-01 07:15,0.8,0,3.3,-90.43,38.93
UIN,2014-02-01 08:23,5.83,0,8.85,-91.1946,39.9428
SPI,2014-02-01 09:01,4.88,0,10.85,-89.6839,39.8447
DEC,2014-02-01 09:05,8.58,1,8.57,-88.8657,39.8346
PIA,2014-02-01 09:14,0.67,0,0.27,-89.6839,40.6675
MTO,2014-02-01 09:17,1.87,0,16.6,-88.2792,39.4779
CMI,2014-02-01 09:28,4.68,0,4.52,-88.2778,40.0388
SUS,2014-02-01 09:33,1.42,0,13.62,-90.6558,38.6572
LAF,2014-02-01 10:42,1.32,0,1.2,-86.9333,40.4148
