station,start_time,zr_hours,label,duration,lon,lat
IPT,2007-12-09 19:54,2.23,0,2.0,-76.9217,41.2433
MPO,2007-12-09 20:14,7.65,1,8.77,-75.3794,41.1389
ELM,2007-12-09 20:53,4.0,0,16.0,-76.8994,42.1571
BGM,2007-12-09 20:53,6.0,1,16.0,-75.9797,42.2086
BUF,2007-12-09 20:54,3.0,0,2.0,-78.7358,42.9408
DSV,2007-12-09 20:54,1.0,0,0.0,-77.71300000000001,42.5709
ITH,2007-12-09 20:56,4.0,0,5.0,-76.4584,42.49100000000001
AVP,2007-12-09 21:28,7.25,1,8.15,-75.7227,41.3335
ABE,2007-12-09 23:04,3.02,0,2.78,-75.4492,40.6508
